GEOID,county_name,state_fips,latitude,longitude,gdp_2023,total_tech_types,total_centrality,Biomass_degree_centrality,Biofuels_degree_centrality,Biogas_degree_centrality,Wind_degree_centrality,Offshore_Wind_degree_centrality,Solar_degree_centrality,Concentrated_Solar_degree_centrality,Waste_to_Heat_degree_centrality,Direct_Air_Capture_degree_centrality,Carbon_Capture_And_Storage_degree_centrality,Biochar_degree_centrality,Carbon_Direct_Removal_degree_centrality,BECCS_degree_centrality,Hydrogen_degree_centrality,Nuclear_Energy_degree_centrality,Nuclear_Fusion_degree_centrality,Hydro_Energy_degree_centrality,Geothermal_degree_centrality,Battery_degree_centrality,Electric_Vehicles_degree_centrality,Sustainable_Aviation_Fuels_degree_centrality,E_Fuels_degree_centrality,Marine_Energy_degree_centrality,Heat_Pumps_degree_centrality,Railway_degree_centrality,Electric_Shipping_degree_centrality,Electric_Aviation_degree_centrality,Fuel_Cell_Aviation_degree_centrality
01003,Baldwin,01,30.660270390994988,-87.74977988576538,12071468.0,28,0.0004216719181980364,0.0,0.0,0.0,0.0,0.0,0.0001350694256847,0.0,0.0,0.0,0.0,0.0,0.0,0.0,0.0,0.0,0.0,0.0,0.0,0.0002512668034674,3.53356890459364e-05,0.0,0.0,0.0,0.0,0.0,0.0,0.0,0.0
01015,Calhoun,01,33.7713950697205,-85.82613545107142,5891059.0,28,6.23495741828968e-05,0.0,0.0,0.0,0.0,0.0,2.7013885136960397e-05,0.0,0.0,0.0,0.0,0.0,0.0,0.0,0.0,0.0,0.0,0.0,0.0,0.0,3.53356890459364e-05,0.0,0.0,0.0,0.0,0.0,0.0,0.0,0.0
01039,Covington,01,31.248372670441764,-86.45120993810635,1574615.0,28,0.00014576668133304651,0.0,0.0,0.0,0.0,0.0,5.4027770273920795e-05,0.0,0.0,0.0,0.0,0.0,0.0,0.0,9.173891105912572e-05,0.0,0.0,0.0,0.0,0.0,0.0,0.0,0.0,0.0,0.0,0.0,0.0,0.0,0.0
01045,Dale,01,31.431762836263896,-85.61107329650382,3699874.0,28,2.7013885136960397e-05,0.0,0.0,0.0,0.0,0.0,2.7013885136960397e-05,0.0,0.0,0.0,0.0,0.0,0.0,0.0,0.0,0.0,0.0,0.0,0.0,0.0,0.0,0.0,0.0,0.0,0.0,0.0,0.0,0.0,0.0
01073,Jefferson,01,33.554265300632174,-86.89666300864066,61990780.0,28,0.042579480681417994,0.0,0.0,0.0,0.000771052486644,0.0,0.0019720136149978,0.0030150753768844,0.0015620932048945,0.0149647887323942,0.0034630606860156,0.0,0.0,0.0,0.0007339112884729,0.0111596312469674,0.0,0.0,0.0,0.0012982118179151,0.0008480565371023,0.0,0.0,0.0,0.0,0.0,0.0014110058455956,0.0013805798435342,0.0
01081,Lee,01,32.60119647646248,-85.3555074874012,8799349.0,28,0.0037798786686967963,0.000228832951945,0.0,0.000145836371591,0.0,0.0,2.7013885136960397e-05,0.0,0.0,0.0,0.0016490765171503,0.0,0.0,0.0,4.5869455529562866e-05,0.0,0.0,0.0,0.0,0.0,7.06713780918728e-05,0.0,0.0,0.0,0.0,0.0,0.0016125781092521,0.0,0.0
01085,Lowndes,01,32.15469949062471,-86.65009105831278,519259.0,28,0.003993978550584721,0.0,0.0,0.0,0.0,0.0,5.4027770273920795e-05,0.0020100502512562,0.0,0.0,0.0,0.0,0.0,0.0,0.0,0.0,0.0,0.0,0.0,0.0002093890028895,0.000530035335689,0.0,0.0,0.0,0.0,0.0011904761904761,0.0,0.0,0.0
01089,Madison,01,34.762951091011814,-86.55017540263873,36321455.0,28,0.012421168407937548,0.000228832951945,0.0,0.0,5.507517761744782e-05,0.0,0.000594305473013,0.0,0.0,0.0,0.0016490765171503,0.0,0.0,0.0,0.0014678225769459,0.0063076176613294,0.0,0.0002428953121204,0.0002730748225013,0.0003350224046232,0.0002120141342756,0.0,0.0,0.0,0.0,0.000595238095238,0.0,0.000460193281178,0.0
01095,Marshall,01,34.366883682546884,-86.30663884916508,4896602.0,28,0.006623059084599073,0.0,0.000593471810089,0.0,0.0,0.0,0.0,0.0,0.0,0.0,0.0,0.0,0.0,0.0,0.0002293472776478,0.0,0.0,0.0,0.0,0.0006700448092466,7.06713780918728e-05,0.0,0.0,0.0,0.0,0.0050595238095238,0.0,0.0,0.0
01097,Mobile,01,30.684512911091954,-88.1975771410334,28332816.0,28,0.02225521313547834,0.0,0.0,0.0,0.0,0.0,0.0002701388513696,0.0,0.0,0.0158450704225352,0.0004947229551451,0.0,0.0,0.0,0.0,0.0009704027171276,0.0,0.0,0.0002730748225013,0.0003350224046232,3.53356890459364e-05,0.0,0.0,0.0,0.0,0.0,0.0040314452731304,0.0,0.0
01101,Montgomery,01,32.220150604081724,-86.20753782183812,18390810.0,28,0.0016559278290241362,0.000228832951945,0.0,0.0,0.0001101503552348,0.0002291738283488,0.0001890971959586,0.0,0.0,0.0,0.0,0.0,0.0,0.0,0.0,0.0,0.0,0.0,0.0,0.0,3.53356890459364e-05,0.0,0.0,0.0,0.0,0.0,0.000403144527313,0.000460193281178,0.0
01103,Morgan,01,34.45349762511575,-86.85286835960673,8023596.0,28,0.0011244165262778998,0.0,0.0,0.0008750182295464,0.0,0.0,0.0001080555405478,0.0,0.0,0.0,0.0,0.0,0.0,0.0,0.0,0.0,0.0,0.0,0.0,0.0,0.0001413427561837,0.0,0.0,0.0,0.0,0.0,0.0,0.0,0.0
01107,Pickens,01,33.28073952632595,-88.08879730919406,538386.0,28,0.0001413427561837,0.0,0.0,0.0,0.0,0.0,0.0,0.0,0.0,0.0,0.0,0.0,0.0,0.0,0.0,0.0,0.0,0.0,0.0,0.0,0.0001413427561837,0.0,0.0,0.0,0.0,0.0,0.0,0.0,0.0
01117,Shelby,01,33.2642320838729,-86.6608392937518,16447755.0,28,0.008158874107501227,0.0,0.0,0.0,0.0,0.0,0.0,0.0,0.0,0.0044014084507042,0.0031332453825857,0.0,0.0,0.0,9.173891105912572e-05,0.0,0.0,0.0,0.0,0.0,0.0,0.0005324813631522,0.0,0.0,0.0,0.0,0.0,0.0,0.0
01121,Talladega,01,33.379916914398734,-86.16625944857422,3825674.0,28,0.0005771651267515001,0.0,0.0,0.0,0.0,0.0,0.0,0.0,0.0,0.0,0.00032981530343,0.0,0.0,0.0,0.0,0.0,0.0,0.0,0.0,0.0,0.0002473498233215,0.0,0.0,0.0,0.0,0.0,0.0,0.0,0.0
01125,Tuscaloosa,01,33.289428051541904,-87.52503742064236,13584024.0,28,0.0362323355951984,0.000228832951945,0.0,0.0,0.0001101503552348,0.0,0.0001350694256848,0.0,0.0,0.0176056338028169,0.0014841688654353,0.0,0.0,0.0,0.0001376083665886,0.0126152353226589,0.0,0.0,0.0,0.0022195234306293,0.0016961130742048,0.0,0.0,0.0,0.0,0.0,0.0,0.0,0.0
02020,Anchorage,02,61.14789955959741,-149.1894772500877,30019193.0,28,0.038494854007228595,0.000228832951945,0.0,0.000291672743182,0.0007159773090266,0.0,0.0027554162839697,0.0,0.0,0.0,0.0,0.0005181347150259,0.0,0.0,0.000412825099766,0.0058224163027656,0.0,0.0041292203060477,0.0032768978700162,0.0022614012312069,0.0022614840989397,0.0,0.0,0.0042849491162292,0.0005921539600296,0.0,0.0,0.0073630924988494,0.0035803795202291
02063,Chugach,02,60.61254700260692,-146.129124234403,1641291.0,28,0.0002428953121204,0.0,0.0,0.0,0.0,0.0,0.0,0.0,0.0,0.0,0.0,0.0,0.0,0.0,0.0,0.0,0.0,0.0002428953121204,0.0,0.0,0.0,0.0,0.0,0.0,0.0,0.0,0.0,0.0,0.0
02090,Fairbanks North Star,02,64.80919001415306,-146.56642266194916,7198784.0,28,0.025766486015280924,0.0004576659038901,0.0,0.0,0.0013768794404361,0.0019479775409648,0.0002971527365065,0.0,0.0002603488674824,0.0,0.00032981530343,0.0,0.0,0.0,9.173891105912572e-05,0.0058224163027656,0.0,0.0007286859363614,0.0,0.0006281670086685,0.0008833922261482,0.0,0.0,0.0073201214068915,0.001480384900074,0.0,0.0,0.0041417395306027,0.0
02100,Haines,02,59.071718485536024,-135.46635043970622,128674.0,28,0.0004322221621913,0.0,0.0,0.0,0.0,0.0,0.0004322221621913,0.0,0.0,0.0,0.0,0.0,0.0,0.0,0.0,0.0,0.0,0.0,0.0,0.0,0.0,0.0,0.0,0.0,0.0,0.0,0.0,0.0,0.0
02110,Juneau,02,58.442116824051105,-134.2266986000614,3098486.0,28,0.0008305983130454477,0.0,0.0,0.0,5.507517761744782e-05,0.0001145869141744,0.0,0.0,0.0,0.0,0.0,0.0,0.0,0.0,0.0,0.0,0.0,0.0,0.0,0.0,0.0004593639575971,0.0,0.0,0.0,0.0,0.0,0.0002015722636565,0.0,0.0
02122,Kenai Peninsula,02,60.10986864250738,-151.71233274433618,3468878.0,28,0.0005866710657659273,0.0,0.0,0.000145836371591,0.0,0.0,0.0,0.0,0.0,0.0,0.0,0.0,0.0,0.0,0.0,0.0,0.0,0.0,0.0,8.37556011558273e-05,0.0,0.0,0.0,0.0003570790930191,0.0,0.0,0.0,0.0,0.0
02164,Lake and Peninsula,02,58.21270192126933,-156.63527934376378,111245.0,28,0.0001785395465095,0.0,0.0,0.0,0.0,0.0,0.0,0.0,0.0,0.0,0.0,0.0,0.0,0.0,0.0,0.0,0.0,0.0,0.0,0.0,0.0,0.0,0.0,0.0001785395465095,0.0,0.0,0.0,0.0,0.0
02170,Matanuska-Susitna,02,62.301715057834194,-149.59708871513004,4046188.0,28,0.0057338606456059,0.0,0.0,0.0,0.0008261276642617,0.001718803712616,0.0011075692906152,0.0,0.0,0.0,0.0,0.0,0.0,0.0,0.0,0.0,0.0,0.0,0.0,0.0003350224046232,0.0003180212014134,0.0,0.0,0.0014283163720764,0.0,0.0,0.0,0.0,0.0
02180,Nome,02,64.83013446580749,-164.2491541859632,562119.0,28,0.0007496590769032,0.0,0.0,0.0,0.0,0.0,0.0001080555405478,0.0,0.0,0.0,0.0,0.0,0.0,0.0,0.0,0.0,0.0,0.0002428953121204,0.0002730748225013,0.0001256334017337,0.0,0.0,0.0,0.0,0.0,0.0,0.0,0.0,0.0
02188,Northwest Arctic,02,67.00210832969357,-160.02566845840886,807211.0,28,0.0001620833108217,0.0,0.0,0.0,0.0,0.0,0.0001620833108217,0.0,0.0,0.0,0.0,0.0,0.0,0.0,0.0,0.0,0.0,0.0,0.0,0.0,0.0,0.0,0.0,0.0,0.0,0.0,0.0,0.0,0.0
02220,Sitka,02,57.174418520993164,-135.29960380863258,677909.0,28,0.000460655806357,0.0,0.0,0.0,0.0,0.0,0.0,0.0,0.0,0.0,0.0,0.0,0.0,0.0,0.0,0.0,0.0,0.0,0.0,0.000460655806357,0.0,0.0,0.0,0.0,0.0,0.0,0.0,0.0,0.0
02290,Yukon-Koyukuk,02,65.46859998282264,-151.72072765284543,373764.0,28,0.0007010668268447,0.0,0.0,0.0,0.0,0.0,0.0003241666216435,0.0,0.0,0.0,0.0,0.0,0.0,0.0,0.0,0.0,0.0,0.0,0.0,0.0003769002052012,0.0,0.0,0.0,0.0,0.0,0.0,0.0,0.0,0.0
04001,Apache,04,35.38468623286435,-109.48843324471682,2770542.0,28,0.00010910294789136861,0.0,0.0,0.0,5.507517761744782e-05,0.0,5.4027770273920795e-05,0.0,0.0,0.0,0.0,0.0,0.0,0.0,0.0,0.0,0.0,0.0,0.0,0.0,0.0,0.0,0.0,0.0,0.0,0.0,0.0,0.0,0.0
04003,Cochise,04,31.879398444880398,-109.7512789779886,6080882.0,28,0.0054855996557317,0.0,0.0,0.0,0.0017624056837581,0.0018333906267904,0.0006753471284239,0.0,0.0,0.0,0.0,0.0,0.0,0.0,0.0,0.0,0.0,0.0,0.0,0.0012144562167593,0.0,0.0,0.0,0.0,0.0,0.0,0.0,0.0,0.0
04005,Coconino,04,35.83544963547637,-111.7687786873735,9967529.0,28,0.0160310220792775,0.0004576659038901,0.0,0.0,0.0,0.0,0.0007023610135608,0.0,0.0,0.01056338028169,0.00032981530343,0.0,0.0013519603424965,0.0,0.0001376083665886,0.0,0.0,0.0,0.0,0.0007538004104023,0.0001060070671378,0.0,0.0,0.0,0.0016284233900814,0.0,0.0,0.0,0.0
04013,Maricopa,04,33.34853443958555,-112.493316032307,383872915.0,28,0.1820096709891733,0.0004576659038901,0.0009891196834816,0.0071459822079622,0.0063336454260055,0.0032084335968832,0.0236911772651125,0.0070351758793969,0.0,0.0132042253521122,0.0021437994722953,0.0082901554404145,0.0126182965299683,0.0018621973929236,0.0164671345351124,0.0019408054342552,0.0,0.0009715812484819,0.0016384489350079,0.0182168432513904,0.0132155477031791,0.0095846645367409,0.0,0.0010712372790571,0.0005921539600296,0.000297619047619,0.000403144527313,0.0234698573400827,0.0071607590404582
04015,Mohave,04,35.697842584396106,-113.76209955226389,8845478.0,28,0.0014348128518294999,0.0,0.0,0.0,0.0004406014209395,0.0,0.0003241666216435,0.0,0.0,0.0,0.0,0.0,0.0,0.0,0.0,0.0,0.0,0.0,0.0,0.0006700448092465,0.0,0.0,0.0,0.0,0.0,0.0,0.0,0.0,0.0
04019,Pima,04,32.09942980315978,-111.78915075937336,62169929.0,28,0.0374951636212148,0.0,0.0,0.000145836371591,0.0017073305061405,0.0,0.0021611108109566,0.0150753768844219,0.0,0.0,0.00032981530343,0.0,0.0027039206849932,0.0,0.0011008669327092,0.0,0.0,0.0,0.0057345712725285,0.0033502240462327,0.0020141342756182,0.0013312034078807,0.0,0.0,0.0,0.0,0.0,0.0018407731247123,0.0
04021,Pinal,04,32.90475071316838,-111.3446783339328,14256537.0,28,0.00042727977636207286,0.0,0.0,0.0,0.0,0.0,0.0001890971959586,0.0,0.0,0.0,0.0,0.0,0.0,0.0,0.0,0.0,0.0,0.0,0.0,0.0001675112023116,7.06713780918728e-05,0.0,0.0,0.0,0.0,0.0,0.0,0.0,0.0
04027,Yuma,04,32.76901786562713,-113.90564743891933,10584673.0,28,0.000595238095238,0.0,0.0,0.0,0.0,0.0,0.0,0.0,0.0,0.0,0.0,0.0,0.0,0.0,0.0,0.0,0.0,0.0,0.0,0.0,0.0,0.0,0.0,0.0,0.0,0.000595238095238,0.0,0.0,0.0
05001,Arkansas,05,34.28904312991014,-91.37401608015178,1429348.0,28,0.0002755667428594,0.0,0.0,0.0,0.0,0.0,0.0001080555405478,0.0,0.0,0.0,0.0,0.0,0.0,0.0,0.0,0.0,0.0,0.0,0.0,0.0001675112023116,0.0,0.0,0.0,0.0,0.0,0.0,0.0,0.0,0.0
05007,Benton,05,36.33879962803348,-94.25621174642382,23669514.0,28,0.010722958317850827,0.0,0.0003956478733926,0.0004375091147732,0.0011565787299664,0.0,0.0013777081419849,0.0,0.0,0.0,0.000164907651715,0.0,0.0004506534474988,0.0,0.0018347782211824,0.0,0.0,0.0,0.0,8.37556011558273e-05,0.0018021201413425,0.0007987220447282,0.0,0.0,0.002220577350111,0.0,0.0,0.0,0.0
05025,Cleveland,05,33.89832625444227,-92.18508750414867,187423.0,28,0.0015269588261266,0.0,0.0,0.0,0.000495676598557,0.0010312822275696,0.0,0.0,0.0,0.0,0.0,0.0,0.0,0.0,0.0,0.0,0.0,0.0,0.0,0.0,0.0,0.0,0.0,0.0,0.0,0.0,0.0,0.0,0.0
05031,Craighead,05,35.83092069222225,-90.63292089317228,6970418.0,28,2.7013885136960397e-05,0.0,0.0,0.0,0.0,0.0,2.7013885136960397e-05,0.0,0.0,0.0,0.0,0.0,0.0,0.0,0.0,0.0,0.0,0.0,0.0,0.0,0.0,0.0,0.0,0.0,0.0,0.0,0.0,0.0,0.0
05045,Faulkner,05,35.14691194634903,-92.33212011544927,5390228.0,28,0.0002701388513695,0.0,0.0,0.0,0.0,0.0,0.0002701388513695,0.0,0.0,0.0,0.0,0.0,0.0,0.0,0.0,0.0,0.0,0.0,0.0,0.0,0.0,0.0,0.0,0.0,0.0,0.0,0.0,0.0,0.0
05051,Garland,05,34.57668532349379,-93.150373492633,4606197.0,28,0.0002093890028895,0.0,0.0,0.0,0.0,0.0,0.0,0.0,0.0,0.0,0.0,0.0,0.0,0.0,0.0,0.0,0.0,0.0,0.0,0.0002093890028895,0.0,0.0,0.0,0.0,0.0,0.0,0.0,0.0,0.0
05057,Hempstead,05,33.735232341458754,-93.66840540192494,1245561.0,28,0.0004060260302856478,0.0,0.0,0.0,5.507517761744782e-05,0.0,0.0001080555405478,0.0,0.0,0.0,0.0,0.0,0.0,0.0,0.0,0.0,0.0,0.0002428953121204,0.0,0.0,0.0,0.0,0.0,0.0,0.0,0.0,0.0,0.0,0.0
05063,Independence,05,35.74152911229934,-91.56969501787808,2525225.0,28,2.7013885136960397e-05,0.0,0.0,0.0,0.0,0.0,2.7013885136960397e-05,0.0,0.0,0.0,0.0,0.0,0.0,0.0,0.0,0.0,0.0,0.0,0.0,0.0,0.0,0.0,0.0,0.0,0.0,0.0,0.0,0.0,0.0
05069,Jefferson,05,34.268282976961146,-91.93029164696571,3621967.0,28,0.0,0.0,0.0,0.0,0.0,0.0,0.0,0.0,0.0,0.0,0.0,0.0,0.0,0.0,0.0,0.0,0.0,0.0,0.0,0.0,0.0,0.0,0.0,0.0,0.0,0.0,0.0,0.0,0.0
05071,Johnson,05,35.569605884979005,-93.46010109543191,890441.0,28,0.0008013262121774,0.0004576659038901,0.0001978239366963,0.000145836371591,0.0,0.0,0.0,0.0,0.0,0.0,0.0,0.0,0.0,0.0,0.0,0.0,0.0,0.0,0.0,0.0,0.0,0.0,0.0,0.0,0.0,0.0,0.0,0.0,0.0
05093,Mississippi,05,35.762288465135185,-90.0523113560361,4292553.0,28,0.0001766784452296,0.0,0.0,0.0,0.0,0.0,0.0,0.0,0.0,0.0,0.0,0.0,0.0,0.0,0.0,0.0,0.0,0.0,0.0,0.0,0.0001766784452296,0.0,0.0,0.0,0.0,0.0,0.0,0.0,0.0
05115,Pope,05,35.44767213217502,-93.03458191128124,4074569.0,28,0.00044967564366652077,0.0,0.0003956478733926,0.0,0.0,0.0,5.4027770273920795e-05,0.0,0.0,0.0,0.0,0.0,0.0,0.0,0.0,0.0,0.0,0.0,0.0,0.0,0.0,0.0,0.0,0.0,0.0,0.0,0.0,0.0,0.0
05119,Pulaski,05,34.76999023032442,-92.31185741029756,39037390.0,28,0.01867831955263326,0.0,0.0,0.0018958728306838,0.0003304510657046,0.0,0.001890971959587,0.0,0.0,0.0,0.0006596306068601,0.0072538860103626,0.0054078413699863,0.0,4.5869455529562866e-05,0.0,0.0,0.0004857906242409,0.0,0.0004606558063569,0.0002473498233215,0.0,0.0,0.0,0.0,0.0,0.0,0.0,0.0
05131,Sebastian,05,35.1987985695822,-94.27439828504943,8972701.0,28,0.0011137658824745137,0.0,0.0,0.0,0.0,0.0,0.0,0.0,0.0,0.0,0.0008245382585751,0.0,0.0,0.0,0.0,0.0,0.0,0.0,0.0,4.187780057791365e-05,0.0002473498233215,0.0,0.0,0.0,0.0,0.0,0.0,0.0,0.0
05139,Union,05,33.17151895885035,-92.59711857505789,3591931.0,28,0.0007424687108966,0.0,0.0,0.0,0.0001101503552348,0.0002291738283488,0.0,0.0,0.0,0.0,0.0,0.0,0.0,0.0,0.0,0.0,0.0,0.0,0.0,0.0,0.0,0.0,0.0,0.0,0.0,0.0,0.000403144527313,0.0,0.0
05143,Washington,05,35.97896991392861,-94.21570746816963,16560700.0,28,0.0105502520749869,0.0006864988558351,0.0003956478733926,0.0,0.0,0.0,0.0004592360473282,0.0,0.0002603488674824,0.0,0.000164907651715,0.0,0.0,0.0,0.0006421723774137,0.0019408054342552,0.0,0.0,0.0,0.0001675112023116,0.0,0.0015974440894568,0.0,0.0,0.0,0.0,0.0006047167909695,0.0018407731247123,0.0017901897601145
06001,Alameda,06,37.65058068729595,-121.91780265761416,178765959.0,28,1.1068217034622532,0.0109839816933636,0.0142433234421357,0.007729327694326,0.0289695434267751,0.0347198349948434,0.0397644389216025,0.0030150753768843,0.0067690705545427,0.1593309859154921,0.0281992084432705,0.0388601036269427,0.2253267237494352,0.0651769087523276,0.0288977569836226,0.0490053372149439,0.121338912133891,0.011901870293903,0.0155652648825773,0.0695590267599109,0.0332862190812699,0.023162939297124,0.0003828483920367,0.0171397964649166,0.0322723908216132,0.003273809523809,0.0066518847006649,0.0248504371836164,0.0064446831364122
06007,Butte,06,39.66655682506488,-121.6007017237546,11727399.0,28,0.0003618539042197604,0.000228832951945,0.0,0.0,0.0,0.0,2.7013885136960397e-05,0.0,0.0,0.0,0.0,0.0,0.0,0.0,0.0,0.0,0.0,0.0,0.0,0.0,0.0001060070671378,0.0,0.0,0.0,0.0,0.0,0.0,0.0,0.0
06009,Calaveras,06,38.20446480031372,-120.55466682173473,1854514.0,28,0.0065663854647291815,0.0016018306636155,0.0,0.0,0.0002203007104697,0.0,8.104165541088119e-05,0.0,0.0,0.0,0.0,0.0046632124352331,0.0,0.0,0.0,0.0,0.0,0.0,0.0,0.0,0.0,0.0,0.0,0.0,0.0,0.0,0.0,0.0,0.0
06013,Contra Costa,06,37.92353972434852,-121.95094466312885,97677817.0,28,0.2406098037885754,0.0130434782608692,0.0089020771513351,0.0049584366340963,0.0013218042628185,0.0003437607425232,0.0103463180074554,0.0020100502512562,0.0059880239520956,0.0088028169014084,0.0234168865435354,0.0217616580310879,0.006309148264984,0.0297951582867782,0.0077060685289664,0.0014556040756914,0.0334728033472802,0.0019431624969638,0.0191152375750954,0.007579881904602,0.004204946996466,0.0133120340788072,0.0,0.0066059632208534,0.0042931162102146,0.0020833333333332,0.0002015722636565,0.0009203865623561,0.0007160759040458
06017,El Dorado,06,38.77890609422654,-120.52504561918757,10968296.0,28,0.0012023911529433734,0.0,0.0,0.0,5.507517761744782e-05,0.0,0.0003781943919174,0.0,0.0,0.0,0.0,0.0,0.0,0.0,9.173891105912572e-05,0.0,0.0,0.0002428953121204,0.0,0.0002931446040453,0.0001413427561837,0.0,0.0,0.0,0.0,0.0,0.0,0.0,0.0
06019,Fresno,06,36.75853163574373,-119.65342719641151,60151259.0,28,0.0126594555501452,0.0,0.0003956478733926,0.0004375091147732,0.0,0.0,0.0014047220271216,0.0,0.0,0.0,0.0,0.0010362694300518,0.0,0.0037243947858473,0.000412825099766,0.0,0.0,0.0,0.0,0.0018845010260056,0.0032155477031797,0.0,0.0,0.0,0.0001480384900074,0.0,0.0,0.0,0.0
06023,Humboldt,06,40.702778734065255,-123.91629688914615,7408007.0,28,0.0143813852545738,0.0018306636155606,0.0,0.0,0.0028639092361069,0.0059585195370688,0.001215624831163,0.0,0.0,0.0,0.0,0.0,0.0,0.0,0.0,0.0,0.0,0.0,0.0,0.0025126680346745,0.0,0.0,0.0,0.0,0.0,0.0,0.0,0.0,0.0
06025,Imperial,06,33.03992376554959,-115.36534924316089,13483299.0,28,0.0020695983320443002,0.0,0.0,0.0,0.0,0.0,0.0002431249662326,0.0,0.0,0.0,0.0,0.0,0.0,0.0,0.0,0.0,0.0,0.0,0.0010922992900053,0.0006281670086686,0.0001060070671378,0.0,0.0,0.0,0.0,0.0,0.0,0.0,0.0
06027,Inyo,06,36.51016350584016,-117.40560194715802,1423839.0,28,5.4027770273920795e-05,0.0,0.0,0.0,0.0,0.0,5.4027770273920795e-05,0.0,0.0,0.0,0.0,0.0,0.0,0.0,0.0,0.0,0.0,0.0,0.0,0.0,0.0,0.0,0.0,0.0,0.0,0.0,0.0,0.0,0.0
06029,Kern,06,35.343534554470764,-118.72904085708133,59846810.0,28,0.0208712220907723,0.000228832951945,0.0011869436201779,0.0,0.0,0.0,0.0009184720946566,0.0,0.0,0.0044014084507041,0.0011543535620052,0.0,0.0009013068949977,0.0,0.0004128250997659,0.0,0.0,0.0,0.0013653741125066,0.0022614012312069,0.0013780918727912,0.0,0.0,0.0,0.0,0.0011904761904761,0.0,0.0036815462494246,0.0017901897601145
06031,Kings,06,36.0749609835204,-119.81583880838437,8873931.0,28,0.0011904761904761,0.0,0.0,0.0,0.0,0.0,0.0,0.0,0.0,0.0,0.0,0.0,0.0,0.0,0.0,0.0,0.0,0.0,0.0,0.0,0.0,0.0,0.0,0.0,0.0,0.0011904761904761,0.0,0.0,0.0
06037,Los Angeles,06,34.196118045488866,-118.26184925710207,961908123.0,28,1.6164835416529106,0.0151029748283745,0.0211671612265069,0.029021437946622,0.0178443575480509,0.0130629082158816,0.0270679129072317,0.0522613065326628,0.0174433741213219,0.2455985915492945,0.036774406332452,0.0891191709844554,0.2505633168093715,0.0689013035381749,0.060088986743724,0.0257156720038814,0.0348675034867502,0.0196745202817581,0.0251228836701245,0.0639892792830454,0.1291519434628909,0.0551118210862603,0.013399693721286,0.0173183360114257,0.020725388601036,0.0169642857142846,0.0316468453940727,0.1113667740450969,0.1074113856068733
06039,Madera,06,37.217832393908765,-119.76473985283461,8025001.0,28,0.0031846112976436003,0.0,0.0,0.0,0.0,0.0,0.0001080555405478,0.0,0.0,0.0,0.0,0.0,0.0,0.0,0.0,0.0,0.0,0.0,0.0,0.0002093890028895,0.0001060070671378,0.0,0.0,0.0,0.0,0.0,0.0,0.0027611596870685,0.0
06041,Marin,06,38.05514084989889,-122.74858049947116,36837335.0,28,0.026474277785479425,0.0,0.0,0.000291672743182,0.0007710524866438,0.0002291738283488,0.0053217353719806,0.0,0.0,0.0017605633802816,0.0011543535620052,0.0010362694300518,0.0040558810274898,0.0,9.173891105912572e-05,0.0,0.0,0.0026718484333252,0.0,0.0045228024624142,0.0015901060070669,0.0,0.0,0.0,0.0004441154700222,0.0,0.0016125781092521,0.0009203865623561,0.0
06043,Mariposa,06,37.58147962575889,-119.90594062213167,986157.0,28,0.004946554796655972,0.0020594965675057,0.0003956478733926,0.000145836371591,0.0,0.0,0.0,0.0,0.0,0.0,0.000164907651715,0.0,0.0,0.0,0.0021099949543598,0.0,0.0,0.0,0.0,0.0,7.06713780918728e-05,0.0,0.0,0.0,0.0,0.0,0.0,0.0,0.0
06045,Mendocino,06,39.432181383714635,-123.43133280511152,4659813.0,28,0.0005529131780958728,0.0,0.0,0.0,0.0,0.0,0.0001890971959587,0.0,0.0,0.0,0.0,0.0,0.0,0.0,0.0,0.0,0.0,0.0,0.0,0.0002931446040453,7.06713780918728e-05,0.0,0.0,0.0,0.0,0.0,0.0,0.0,0.0
06047,Merced,06,37.191687313340516,-120.71843269470351,12214481.0,28,0.0154496650349334,0.0009153318077803,0.0003956478733926,0.0002916727431821,0.0,0.0,0.0001620833108217,0.0,0.0,0.0,0.000164907651715,0.0031088082901554,0.0,0.0037243947858473,0.0,0.0,0.0,0.0,0.0,0.0016751120231164,0.001060070671378,0.0,0.0,0.0,0.0,0.0011904761904761,0.0,0.0027611596870685,0.0
06053,Monterey,06,36.23950501814014,-121.30662866869112,36861463.0,28,0.0134671468019573,0.0004576659038901,0.0,0.000145836371591,0.0004406014209394,0.0002291738283488,0.0028094440542437,0.0,0.0,0.0,0.000164907651715,0.0025906735751295,0.0013519603424965,0.0,0.0012843447548275,0.0,0.0,0.0,0.0010922992900054,0.002303279031785,0.0002473498233215,0.0,0.0,0.0,0.0001480384900074,0.0,0.0002015722636565,0.0,0.0
06055,Napa,06,38.50667072336308,-122.3304831549809,14227116.0,28,0.0052491212507313634,0.0,0.0003956478733926,0.0002916727431821,0.0,0.0,0.0004322221621913,0.0,0.0010413954699296,0.0,0.00032981530343,0.0020725388601036,0.0,0.0,4.5869455529562866e-05,0.0,0.0,0.0,0.0,0.0002512668034674,0.0003886925795052,0.0,0.0,0.0,0.0,0.0,0.0,0.0,0.0
06057,Nevada,06,39.30167784870719,-120.76952954251527,5948973.0,28,0.0069429239744337005,0.0016018306636155,0.0,0.0,0.0,0.0,0.0009184720946566,0.0,0.0,0.0,0.0,0.0036269430051813,0.0,0.0,0.0,0.0,0.0,0.0,0.0,0.0007956782109803,0.0,0.0,0.0,0.0,0.0,0.0,0.0,0.0,0.0
06059,Orange,06,33.67689599891533,-117.77656012352938,333453280.0,28,0.2393610282674195,0.000228832951945,0.0073194856577644,0.0128336007000139,0.0031943603018114,0.0036667812535808,0.0130477065211507,0.0,0.0005206977349648,0.0052816901408449,0.0026385224274404,0.0082901554404145,0.0040558810274897,0.0,0.0149075730471068,0.0033964095099466,0.0474198047419804,0.0009715812484819,0.0049153468050244,0.0168767536328976,0.0276678445229661,0.0226304579339718,0.0034456355283307,0.0014283163720764,0.0093264248704662,0.0,0.001209433581939,0.0101242521859177,0.0139634801288934
06061,Placer,06,39.06381186948651,-120.71901150620917,33596149.0,28,0.0219392892875009,0.0016018306636155,0.0005934718100889,0.0,0.0013218042628187,0.0,0.0058620130747201,0.0,0.0,0.0,0.0,0.0036269430051813,0.0,0.0,0.0004586945552955,0.0,0.0,0.0002428953121204,0.000819224467504,0.0062816700866868,0.0011307420494697,0.0,0.0,0.0,0.0,0.0,0.0,0.0,0.0
06065,Riverside,06,33.74663021546801,-115.9939390022423,126292771.0,28,0.040247055393877504,0.0,0.0003956478733926,0.000145836371591,0.0007710524866441,0.0009166953133952,0.0014587497973958,0.0,0.0033845352772715,0.0,0.0004947229551449,0.0,0.0009013068949977,0.0,0.0072932434292,0.0,0.0,0.0,0.0131075914800653,0.0015494786213825,0.0018374558303884,0.0002662406815761,0.0,0.0003570790930191,0.0041450777202072,0.0,0.0,0.0,0.0032223415682061
06067,Sacramento,06,38.44905589719745,-121.3445167680034,125634997.0,28,0.3331721083488354,0.0112128146453083,0.0025717111770522,0.0131252734431962,0.0093077050173481,0.0121462129024864,0.0079420822302657,0.0,0.001301744337412,0.0096830985915491,0.0092348284960418,0.0430051813471501,0.0103650292924737,0.014897579143389,0.0202742993440659,0.0,0.00139470013947,0.0104444984211802,0.0141998907700707,0.0191800326646836,0.0273144876325075,0.0165069222577208,0.0111026033690658,0.0064274236743437,0.0137675795706883,0.0142857142857139,0.0114896190284214,0.0087436723423833,0.0132474042248477
06069,San Benito,06,36.60552673990396,-121.07407769290168,2900206.0,28,0.1526468559535628,0.0,0.0,0.0,0.0,0.0,0.0001080555405478,0.0010050251256281,0.0,0.005281690140845,0.000164907651715,0.0,0.0,0.0,0.0118343195266272,0.0,0.0,0.0,0.0,0.001423845219649,0.0006007067137809,0.0162406815761448,0.003062787136294,0.0003570790930191,0.0,0.0,0.0,0.0312931431201104,0.0812746151092015
06071,San Bernardino,06,34.842029964004986,-116.17662434068924,130566310.0,28,0.0683476851081081,0.0,0.0,0.0035000729181856,0.0004406014209394,0.0004583476566976,0.001296666486574,0.0,0.0036448841447539,0.0,0.0,0.0082901554404145,0.0004506534474988,0.0,0.0026145589651848,0.0067928190198932,0.0,0.0,0.0109229929000544,0.0038108798525897,0.0112720848056531,0.0,0.0,0.0,0.0050333086602516,0.0032738095238095,0.0,0.0036815462494247,0.0028643036161833
06073,San Diego,06,33.02818270473282,-116.76990749906224,314943175.0,28,0.3518326176523722,0.000228832951945,0.0089020771513349,0.0021875455738658,0.0145398468910049,0.014896298842672,0.0272840239883277,0.0130653266331656,0.0078104660244726,0.0,0.0052770448548806,0.0015544041450777,0.0081117620549795,0.0,0.016146048346405,0.0063076176613294,0.0794979079497907,0.002671848433325,0.0060076460950295,0.0332928514594384,0.0245936395759697,0.0114483493077736,0.0042113323124042,0.0255311551508654,0.001480384900074,0.0044642857142855,0.0137069139286432,0.0096640589047395,0.0089509488005728
06075,San Francisco,06,37.76007246716975,-122.69412310934632,263108633.0,28,1.3413786195394666,0.0043478260869561,0.0087042532146383,0.0094793641534186,0.0291898441372432,0.0296780107711695,0.0470852017937175,0.0211055276381909,0.0067690705545426,0.1584507042253508,0.0319920844327156,0.0481865284974088,0.401081568273994,0.0391061452513964,0.0233475528645451,0.0164968461911692,0.0808926080892606,0.0055865921787704,0.0267613326051324,0.0712341387830261,0.0640636042402781,0.054579339723108,0.0080398162327715,0.0153544009998208,0.0307920059215392,0.0124999999999993,0.0344688570852642,0.0280717901518627,0.0340136054421765
06077,San Joaquin,06,37.93443860904657,-121.271658241428,42836031.0,28,0.012964504619662613,0.0022883295194508,0.0003956478733926,0.0,0.0,0.0,0.0004322221621913,0.0,0.0026034886748242,0.0,0.0,0.0,0.0,0.0,0.0013760836658867,0.0,0.0,0.0,0.0,4.187780057791365e-05,0.0013780918727914,0.0005324813631522,0.0,0.0008926977325477,0.0,0.0,0.0030235839548478,0.0,0.0
06079,San Luis Obispo,06,35.387578401847676,-120.45071250295173,22753294.0,28,0.02783091619082543,0.0,0.0,0.0,0.0008812028418791,0.001718803712616,0.0039980550002698,0.0070351758793969,0.0,0.0,0.0,0.0031088082901554,0.0031545741324921,0.0,9.173891105912572e-05,0.0,0.0,0.0,0.0,0.003769002052012,0.00208480565371,0.0005324813631522,0.0,0.0,0.000740192450037,0.0,0.0,0.0,0.0007160759040458
06081,San Mateo,06,37.43590879156796,-122.35557382509224,202488060.0,28,0.4828451413646925,0.0006864988558352,0.0023738872403556,0.0029167274318212,0.0066640964917104,0.0010312822275696,0.0099951375006743,0.0020100502512562,0.0046862796146836,0.0651408450704222,0.0163258575197884,0.0238341968911916,0.1194231635872007,0.0391061452513966,0.0097243245722663,0.0126152353226588,0.0334728033472802,0.0021860578090841,0.0038230475150189,0.0229490347166947,0.025795053003532,0.013578274760383,0.0068912710566615,0.0008926977325477,0.0115470022205772,0.0074404761904761,0.0074581737552912,0.0073630924988491,0.0229144289294662
06083,Santa Barbara,06,34.53743914265845,-120.0302806035389,38512465.0,28,0.0226606946777027,0.0,0.0,0.0,0.0008261276642615,0.0002291738283488,0.002512291317737,0.0090452261306532,0.0,0.0,0.0,0.0,0.0004506534474988,0.0,0.0011008669327093,0.0,0.0,0.0,0.0,0.0023032790317848,0.0019081272084801,0.0,0.0,0.0042849491162292,0.0,0.0,0.0,0.0,0.0
06085,Santa Clara,06,37.23243366891431,-121.6958351041047,419917249.0,28,1.127099823005132,0.0311212814645305,0.0122650840751722,0.008166836809099,0.0301261221567416,0.0192506015812992,0.0312280512183233,0.0130653266331655,0.0270762822181717,0.1170774647887316,0.0395778364116075,0.031088082901554,0.131590806669669,0.0614525139664803,0.0402275124994244,0.0713245997088789,0.03905160390516,0.0055865921787704,0.0314036045876562,0.0752125298379274,0.0692932862190769,0.0447284345047915,0.0260336906584989,0.0121406891626489,0.0251665433012581,0.0086309523809518,0.0187462205200559,0.0763920846755625,0.0300751879699244
06087,Santa Cruz,06,37.02159170734078,-122.00957477614648,20186709.0,28,0.06486656030620029,0.0,0.0,0.0004375091147732,0.0003304510657046,0.0,0.0010265276352043,0.0,0.0,0.0017605633802816,0.0,0.0,0.0009013068949976,0.0,0.0010091280216502,0.0,0.0,0.0,0.0,0.0010888228150255,0.0017314487632506,0.0002662406815761,0.0022970903522205,0.0005356186395286,0.0001480384900074,0.0,0.0,0.0450989415554531,0.008234872896527
06089,Shasta,06,40.76364820579278,-122.0413461536632,11047068.0,28,0.0004375091147732,0.0,0.0,0.0004375091147732,0.0,0.0,0.0,0.0,0.0,0.0,0.0,0.0,0.0,0.0,0.0,0.0,0.0,0.0,0.0,0.0,0.0,0.0,0.0,0.0,0.0,0.0,0.0,0.0,0.0
06093,Siskiyou,06,41.59331162060861,-122.54038905105845,2370763.0,28,0.00059534820464975,0.0,0.0,0.0,0.0,0.0,0.0,0.0,0.0,0.0,0.0,0.0005181347150259,0.0,0.0,0.0,0.0,0.0,0.0,0.0,4.187780057791365e-05,3.53356890459364e-05,0.0,0.0,0.0,0.0,0.0,0.0,0.0,0.0
06095,Solano,06,38.266801817171675,-121.94017865611448,37156243.0,28,0.0030837597477052997,0.0,0.0003956478733926,0.0,0.0,0.0,0.0002431249662326,0.0,0.0,0.0,0.0,0.0,0.0,0.0,0.0007339112884728,0.0,0.0,0.0,0.0,0.0003769002052011,0.0009540636042402,0.0,0.0,0.0001785395465095,0.0,0.0,0.0002015722636565,0.0,0.0
06097,Sonoma,06,38.52524944914733,-122.92188090276667,38453328.0,28,0.022369487070920867,0.0,0.0003956478733926,0.0002916727431821,0.0003855262433221,0.0,0.0034307634123936,0.0020100502512562,0.0,0.0,0.0,0.0020725388601036,0.0,0.0,4.5869455529562866e-05,0.0,0.0,0.0,0.001638448935008,0.0038527576531674,0.0042756183745581,0.0,0.0,0.0,0.0,0.0,0.0012094335819391,0.0027611596870685,0.0
06099,Stanislaus,06,37.55894217400619,-120.99849480030986,30597632.0,28,0.012387099110512426,0.0020594965675056,0.002373887240356,0.0005833454863642,0.0,0.0,0.0002701388513695,0.0,0.0,0.0,0.0,0.0,0.0,0.0,9.173891105912572e-05,0.0,0.0,0.0009715812484818,0.0,0.0003769002052011,0.0003886925795052,0.0002662406815761,0.0,0.0,0.0,0.0,0.000403144527313,0.0046019328117808,0.0
06101,Sutter,06,39.034278409565744,-121.6945358476735,5034052.0,28,0.000228832951945,0.000228832951945,0.0,0.0,0.0,0.0,0.0,0.0,0.0,0.0,0.0,0.0,0.0,0.0,0.0,0.0,0.0,0.0,0.0,0.0,0.0,0.0,0.0,0.0,0.0,0.0,0.0,0.0,0.0
06103,Tehama,06,40.12604179496832,-122.23449663276196,2772973.0,28,0.0001675112023116,0.0,0.0,0.0,0.0,0.0,0.0,0.0,0.0,0.0,0.0,0.0,0.0,0.0,0.0,0.0,0.0,0.0,0.0,0.0001675112023116,0.0,0.0,0.0,0.0,0.0,0.0,0.0,0.0,0.0
06107,Tulare,06,36.22004447355233,-118.80036177390276,24256732.0,28,0.007958169758176363,0.0,0.0003956478733926,0.0030625638034124,0.0,0.0,0.0002161110810956,0.0010050251256281,0.0010413954699297,0.0,0.000164907651715,0.0,0.0,0.0,4.5869455529562866e-05,0.0,0.0,0.0,0.0,0.0005025336069348,0.0011660777385157,0.0,0.0,0.0,0.0,0.0,0.0,0.0,0.0003580379520229
06111,Ventura,06,34.35587114032173,-119.12654648701819,65991334.0,28,0.0313609176151742,0.000228832951945,0.0025717111770524,0.0,0.0004406014209394,0.0001145869141744,0.0034307634123937,0.0,0.0,0.0,0.000164907651715,0.0005181347150259,0.0,0.0,0.000825650199532,0.0,0.0,0.0,0.0,0.0054859918757064,0.0015194346289751,0.0002662406815761,0.0,0.0026780931976432,0.000740192450037,0.0,0.0068534569643216,0.005522319374137,0.0
06113,Yolo,06,38.68655349603251,-121.90056533107797,19424841.0,28,0.018112862106895,0.0006864988558351,0.0017804154302669,0.0002916727431821,0.0008812028418791,0.0,0.0014857636825326,0.0020100502512562,0.0002603488674824,0.0,0.0,0.0020725388601036,0.0,0.0,0.0016513003990641,0.0,0.0,0.0,0.0,0.0012982118179152,0.0021908127208478,0.0005324813631522,0.0,0.0,0.0008882309400444,0.0020833333333333,0.0,0.0,0.0
06115,Yuba,06,39.26875246817544,-121.35179311847175,4191220.0,28,0.0013870600718457,0.0011441647597253,0.0,0.0,0.0,0.0,0.0,0.0,0.0,0.0,0.0,0.0,0.0,0.0,0.0,0.0,0.0,0.0002428953121204,0.0,0.0,0.0,0.0,0.0,0.0,0.0,0.0,0.0,0.0,0.0
08001,Adams,08,39.87413291365671,-104.33784667600582,41298985.0,28,0.045356633019201995,0.0,0.0001978239366963,0.000145836371591,0.0001652255328522,0.0,0.0008914582095194,0.0,0.0,0.0176056338028169,0.0,0.0,0.0166741775574582,0.0,0.001559561488005,0.0053372149442018,0.0,0.0,0.0002730748225013,0.0001675112023116,0.0012367491166075,0.0,0.0,0.0,0.0002960769800148,0.0,0.000806289054626,0.0,0.0
08005,Arapahoe,08,39.650279075324065,-104.33932786687957,64323218.0,28,0.0760946542909823,0.0,0.0001978239366963,0.0018958728306837,0.0007710524866441,0.0,0.0023772218920525,0.0,0.0005206977349648,0.0123239436619717,0.000164907651715,0.0,0.0175754844524558,0.0,0.0015595614880048,0.0029112081513828,0.0,0.0002428953121204,0.0002730748225013,0.0044390468612584,0.0019081272084803,0.011182108626198,0.0,0.0,0.000740192450037,0.000595238095238,0.0,0.0078232857800275,0.0085929108485499
08013,Boulder,08,40.09244600942361,-105.35771228800381,37662897.0,28,0.2901187230655405,0.0045766590389014,0.0025717111770523,0.0013125273443195,0.0056176681169791,0.001718803712616,0.0125884704738225,0.0,0.0,0.0484154929577463,0.0122031662269127,0.0145077720207253,0.062190175754844,0.0,0.0087610660061458,0.0,0.0,0.003157639057566,0.0016384489350079,0.0151178860086257,0.0159717314487621,0.0354100106496268,0.0,0.0035707909301909,0.011843079200592,0.0,0.0034267284821608,0.0133456051541645,0.0121732903687789
08014,Broomfield,08,39.95412746322226,-105.05271025402395,11037437.0,28,0.004693319771925074,0.0,0.0,0.0004375091147732,5.507517761744782e-05,0.0,0.0002161110810956,0.0,0.0,0.0,0.0,0.0,0.0004506534474988,0.0,9.173891105912572e-05,0.0,0.0,0.0002428953121204,0.0,0.0001675112023116,0.0005300353356889,0.0,0.0,0.0,0.0,0.0017857142857142,0.0,0.0,0.0007160759040458
08015,Chaffee,08,38.746590092010955,-106.19376321399038,1206188.0,28,0.0002730748225013,0.0,0.0,0.0,0.0,0.0,0.0,0.0,0.0,0.0,0.0,0.0,0.0,0.0,0.0,0.0,0.0,0.0,0.0002730748225013,0.0,0.0,0.0,0.0,0.0,0.0,0.0,0.0,0.0,0.0
08029,Delta,08,38.8613837973198,-107.86319764443355,1149771.0,28,0.0024542921729557,0.0,0.0,0.0,0.0,0.0,0.0014047220271219,0.0,0.0,0.0,0.0,0.0,0.0,0.0,0.0,0.0,0.0,0.0,0.0,0.0008375560115582,0.0002120141342756,0.0,0.0,0.0,0.0,0.0,0.0,0.0,0.0
08031,Denver,08,39.76197579158623,-104.87599912234602,118568808.0,28,0.19372822511683657,0.0070938215102974,0.0021760633036596,0.0021875455738657,0.0024783829927846,0.0019479775409648,0.0082932627370461,0.0,0.0028638375423065,0.0211267605633801,0.0122031662269123,0.0067357512953366,0.0085624155024782,0.0,0.0049539011971921,0.009704027171276,0.0432357043235704,0.0009715812484818,0.0131075914800651,0.0076217597051792,0.0119787985865713,0.0071884984025556,0.0084226646248082,0.0024995536511336,0.0017764618800888,0.001190476190476,0.000806289054626,0.0046019328117806,0.0
08035,Douglas,08,39.32966752795635,-104.92947043372067,29016749.0,28,0.0356739831370706,0.0,0.0077151335311572,0.0007291818579553,0.0002203007104697,0.0,0.0001350694256847,0.0,0.0,0.0,0.00032981530343,0.0,0.0,0.0,0.0005045640108251,0.0,0.0,0.0,0.0,0.0002512668034674,0.0002120141342756,0.0228966986155484,0.0026799387442572,0.0,0.0,0.0,0.0,0.0,0.0
08037,Eagle,08,39.62771243061636,-106.69514931821944,6442082.0,28,0.0021568336884945816,0.0,0.0,0.0,0.0,0.0,8.104165541088119e-05,0.0,0.0,0.0,0.0,0.0,0.0,0.0,0.0,0.0,0.0,0.0,0.0,0.0001256334017337,0.0018021201413426,0.0,0.0,0.0,0.0001480384900074,0.0,0.0,0.0,0.0
08041,El Paso,08,38.8319861144884,-104.52541608861831,51748130.0,28,0.009767874893929863,0.0,0.0,0.0004375091147732,0.0009362780194966,0.0019479775409648,0.0014317359122587,0.0,0.0,0.0,0.0006596306068601,0.0,0.0018026137899954,0.0,4.5869455529562866e-05,0.0,0.0,0.0,0.0,0.0010888228150256,0.0008127208480564,0.0,0.0,0.0,0.0,0.0,0.0006047167909695,0.0,0.0
08045,Garfield,08,39.600221350861844,-107.90518768280262,4995438.0,28,0.005169908930805199,0.0,0.0,0.0,0.0001101503552348,0.0,0.0009184720946565,0.0,0.0,0.0,0.0,0.0,0.0,0.0,0.0,0.0,0.0,0.0,0.0,0.0013400896184931,0.001024734982332,0.0,0.0,0.0,0.0017764618800888,0.0,0.0,0.0,0.0
08049,Grand,08,40.10250876026087,-106.11815333514072,1427137.0,28,0.0005653710247349,0.0,0.0,0.0,0.0,0.0,0.0,0.0,0.0,0.0,0.0,0.0,0.0,0.0,0.0,0.0,0.0,0.0,0.0,0.0,0.0005653710247349,0.0,0.0,0.0,0.0,0.0,0.0,0.0,0.0
08051,Gunnison,08,38.66633295600236,-107.03187794985375,1600626.0,28,0.0008506231405783364,0.0,0.0,0.0,0.0,0.0,0.0002971527365065,0.0,0.0,0.0,0.0,0.0005181347150259,0.0,0.0,0.0,0.0,0.0,0.0,0.0,0.0,3.53356890459364e-05,0.0,0.0,0.0,0.0,0.0,0.0,0.0,0.0
08059,Jefferson,08,39.58587611932319,-105.25063749601735,44459565.0,28,0.33695328100287913,0.0077803203661325,0.0126607319485655,0.0029167274318213,0.0124469901415425,0.0112295175890913,0.0127775676697818,0.0623115577889446,0.006248372819578,0.0105633802816898,0.0178100263852238,0.0062176165803108,0.0076611086074806,0.0186219739292364,0.0111921471492129,0.0082484230955846,0.00418410041841,0.009230021860578,0.0155652648825777,0.0161229532224961,0.0125441696113069,0.0082534611288602,0.0045941807044408,0.0228530619532225,0.0173205033308658,0.0026785714285714,0.000806289054626,0.0087436723423838,0.0053705692803435
08067,La Plata,08,37.286360690742214,-107.84356141444192,4098961.0,28,0.0019878780650549,0.0,0.0,0.0002916727431821,0.0,0.0,0.0005402777027391,0.0,0.0,0.0,0.00032981530343,0.0,0.0,0.0,0.0,0.0,0.0,0.0,0.0,0.0,0.0005300353356889,0.0,0.0,0.0,0.0002960769800148,0.0,0.0,0.0,0.0
08069,Larimer,08,40.666137614385676,-105.46075499785927,26974178.0,28,0.09095888558802329,0.0004576659038901,0.0025717111770524,0.0014583637159104,0.0007159773090267,0.0,0.0054838186828026,0.0,0.0002603488674824,0.0,0.0019788918205803,0.0,0.0162235241099592,0.0,0.0036695564423645,0.0019408054342552,0.0167364016736401,0.0012144765606023,0.0,0.0058210142803294,0.0089045936395753,0.0047923322683705,0.0,0.0014283163720764,0.0136195410806808,0.0,0.0,0.0036815462494247,0.0
08073,Lincoln,08,38.98694824686671,-103.51460710378383,540764.0,28,7.06713780918728e-05,0.0,0.0,0.0,0.0,0.0,0.0,0.0,0.0,0.0,0.0,0.0,0.0,0.0,0.0,0.0,0.0,0.0,0.0,0.0,7.06713780918728e-05,0.0,0.0,0.0,0.0,0.0,0.0,0.0,0.0
08075,Logan,08,40.724546269171434,-103.11006472351148,1412430.0,28,0.0005724932602323,0.000228832951945,0.0001978239366963,0.000145836371591,0.0,0.0,0.0,0.0,0.0,0.0,0.0,0.0,0.0,0.0,0.0,0.0,0.0,0.0,0.0,0.0,0.0,0.0,0.0,0.0,0.0,0.0,0.0,0.0,0.0
08077,Mesa,08,39.01811683177765,-108.46770739612158,9147468.0,28,2.7013885136960397e-05,0.0,0.0,0.0,0.0,0.0,2.7013885136960397e-05,0.0,0.0,0.0,0.0,0.0,0.0,0.0,0.0,0.0,0.0,0.0,0.0,0.0,0.0,0.0,0.0,0.0,0.0,0.0,0.0,0.0,0.0
08081,Moffat,08,40.61859991759529,-108.2074631533241,1337785.0,28,0.0001080555405478,0.0,0.0,0.0,0.0,0.0,0.0001080555405478,0.0,0.0,0.0,0.0,0.0,0.0,0.0,0.0,0.0,0.0,0.0,0.0,0.0,0.0,0.0,0.0,0.0,0.0,0.0,0.0,0.0,0.0
08085,Montrose,08,38.40265073685748,-108.2701892158115,2300518.0,28,0.000312795278257929,0.0,0.0,0.0,5.507517761744782e-05,0.0,8.104165541088119e-05,0.0,0.0,0.0,0.0,0.0,0.0,0.0,0.0,0.0,0.0,0.0,0.0,0.0,0.0001766784452296,0.0,0.0,0.0,0.0,0.0,0.0,0.0,0.0
08087,Morgan,08,40.26256173362494,-103.80982908054115,1969012.0,28,0.0002120141342756,0.0,0.0,0.0,0.0,0.0,0.0,0.0,0.0,0.0,0.0,0.0,0.0,0.0,0.0,0.0,0.0,0.0,0.0,0.0,0.0002120141342756,0.0,0.0,0.0,0.0,0.0,0.0,0.0,0.0
08093,Park,08,39.118774778883555,-105.71711820925557,589636.0,28,0.0033932418358369,0.0,0.0,0.0,0.0011015035523489,0.002291738283488,0.0,0.0,0.0,0.0,0.0,0.0,0.0,0.0,0.0,0.0,0.0,0.0,0.0,0.0,0.0,0.0,0.0,0.0,0.0,0.0,0.0,0.0,0.0
08095,Phillips,08,40.593888020145606,-102.35758458543084,335992.0,28,0.0001544269792477001,0.0,0.0,0.0,0.0,0.0,0.0,0.0,0.0,0.0,0.0,0.0,0.0,0.0,0.0,0.0,0.0,0.0,0.0,8.37556011558273e-05,7.06713780918728e-05,0.0,0.0,0.0,0.0,0.0,0.0,0.0,0.0
08097,Pitkin,08,39.21722547463623,-106.91646308142826,3559697.0,28,0.0090374692382162,0.0,0.0,0.0,0.0002753758880872,0.0,0.0007834026689717,0.0,0.0,0.0,0.0008245382585751,0.0,0.0,0.0,0.0002293472776478,0.0,0.0,0.0,0.0010922992900054,0.0019682566271618,0.000459363957597,0.0,0.0,0.0,0.0034048852701702,0.0,0.0,0.0,0.0
08101,Pueblo,08,38.173221213083806,-104.51277699302112,8576776.0,28,0.007950354955559399,0.0,0.0,0.000145836371591,0.0009362780194966,0.0,0.0002971527365065,0.0,0.0,0.0,0.0,0.0,0.0,0.0,0.0007797807440025,0.0,0.0,0.0,0.0046422719825232,0.0007956782109803,0.0003533568904593,0.0,0.0,0.0,0.0,0.0,0.0,0.0,0.0
08107,Routt,08,40.48403089641759,-106.99079329768321,2895922.0,28,0.001595846786947,0.0,0.0,0.0,0.0,0.0,0.0001080555405478,0.0,0.0,0.0,0.0,0.0,0.0,0.0,0.0001834778221182,0.0,0.0,0.0,0.0010922992900054,0.0,0.0002120141342756,0.0,0.0,0.0,0.0,0.0,0.0,0.0,0.0
08117,Summit,08,39.63395149897156,-106.1160488865837,4000716.0,28,2.7013885136960397e-05,0.0,0.0,0.0,0.0,0.0,2.7013885136960397e-05,0.0,0.0,0.0,0.0,0.0,0.0,0.0,0.0,0.0,0.0,0.0,0.0,0.0,0.0,0.0,0.0,0.0,0.0,0.0,0.0,0.0,0.0
08119,Teller,08,38.88220220593186,-105.16171013074025,1344511.0,28,0.0008574356951326256,0.0,0.0,0.0,0.0,0.0,0.0,0.0,0.0,0.0,0.0,0.0,0.0,0.0,9.173891105912572e-05,0.0,0.0,0.0,0.0,0.0,0.0,0.0,0.0007656967840735,0.0,0.0,0.0,0.0,0.0,0.0
08123,Weld,08,40.55415927048851,-104.39371849607146,28181144.0,28,0.001884032670954781,0.0,0.0001978239366963,0.0008750182295462,0.0,0.0,8.104165541088119e-05,0.0,0.0,0.0,0.0,0.0005181347150259,0.0,0.0,0.0,0.0,0.0,0.0,0.0,0.0,0.0002120141342755,0.0,0.0,0.0,0.0,0.0,0.0,0.0,0.0
08125,Yuma,08,40.00216471348359,-102.42425282187212,607465.0,28,0.0001377833714297481,0.0,0.0,0.0,0.0,0.0,5.4027770273920795e-05,0.0,0.0,0.0,0.0,0.0,0.0,0.0,0.0,0.0,0.0,0.0,0.0,8.37556011558273e-05,0.0,0.0,0.0,0.0,0.0,0.0,0.0,0.0,0.0
09110,Capitol,09,41.81843698980162,-72.57215051688505,,28,0.1214016865780538,0.0,0.0005934718100889,0.000583345486364,0.0087569532411737,0.0163859287269393,0.0038359716894478,0.0,0.0002603488674824,0.0,0.0004947229551449,0.0,0.0,0.0,0.0215127746433641,0.0009704027171276,0.0,0.0002428953121204,0.0084653194975421,0.0035177352485443,0.0048763250883388,0.0202342917997867,0.0007656967840734,0.0001785395465095,0.0056254626202812,0.0,0.0024188671638781,0.0138057984353426,0.007876834944504
09120,Greater Bridgeport,09,41.185028935657286,-73.20845513961727,,28,0.0084828162474559,0.0,0.0,0.0,0.0002753758880872,0.000572934570872,0.0002161110810956,0.0,0.0,0.0,0.0,0.0,0.0,0.0,0.0014678225769459,0.0,0.0,0.0,0.0,0.0003769002052012,0.0001413427561837,0.0015974440894568,0.0,0.0,0.0013323464100666,0.0,0.0002015722636565,0.0023009664058904,0.0
09130,Lower Connecticut River Valley,09,41.420567012575724,-72.49205663071733,,28,0.0071425332717960635,0.0,0.0,0.0,0.0006058269537917,0.0012604560559184,0.0003511805067804,0.0,0.0,0.0,0.0,0.0,0.0004506534474988,0.0,0.0001376083665886,0.0,0.00278940027894,0.0,0.0,8.37556011558273e-05,3.53356890459364e-05,0.0,0.0,0.0014283163720764,0.0,0.0,0.0,0.0,0.0
09140,Naugatuck Valley,09,41.52300592760707,-73.08611951790749,,28,0.0034698122464458,0.0,0.0,0.0,0.0,0.0,0.0004862499324652,0.0,0.0,0.0,0.0,0.0,0.0,0.0,0.001146736388239,0.0,0.0,0.0,0.0,0.0,0.0003533568904592,0.0,0.0,0.0,0.0008882309400444,0.000595238095238,0.0,0.0,0.0
09150,Northeastern Connecticut,09,41.82677690537416,-71.97677239109792,,28,6.23495741828968e-05,0.0,0.0,0.0,0.0,0.0,2.7013885136960397e-05,0.0,0.0,0.0,0.0,0.0,0.0,0.0,0.0,0.0,0.0,0.0,0.0,0.0,3.53356890459364e-05,0.0,0.0,0.0,0.0,0.0,0.0,0.0,0.0
09160,Northwest Hills,09,41.84678551795852,-73.22131365331903,,28,0.0002149968610535572,0.0,0.0,0.0,0.0,0.0,5.4027770273920795e-05,0.0,0.0,0.0,0.0,0.0,0.0,0.0,0.0,0.0,0.0,0.0,0.0,0.0001256334017337,3.53356890459364e-05,0.0,0.0,0.0,0.0,0.0,0.0,0.0,0.0
09170,South Central Connecticut,09,41.294362187857516,-72.83369666767928,,28,0.0347053409234941,0.0,0.0013847675568743,0.0,0.0042407886765433,0.0069898017646384,0.0018099303041761,0.0,0.0005206977349648,0.0008802816901408,0.0036279683377306,0.0005181347150259,0.0022532672374943,0.0,0.0025228200541258,0.0,0.0,0.0007286859363614,0.0002730748225013,0.0011725784161813,0.0006713780918727,0.0021299254526091,0.0,0.0014283163720764,0.0035529237601776,0.0,0.0,0.0,0.0
09180,Southeastern Connecticut,09,41.48465433531759,-72.10062817021198,,28,0.0054575459045137,0.0,0.0,0.0,0.000881202841879,0.0018333906267904,0.0002161110810956,0.0,0.0,0.0,0.0,0.0,0.0,0.0,0.0,0.0014556040756914,0.0,0.0,0.0,0.0,0.0,0.0,0.0,0.0010712372790573,0.0,0.0,0.0,0.0,0.0
09190,Western Connecticut,09,41.28042782845808,-73.44722572894078,,28,0.08301256534973059,0.0006864988558351,0.0033630069238376,0.0043750911477319,0.0014319546180533,0.0016042167984416,0.0045383327030087,0.0020100502512562,0.0002603488674824,0.0,0.0037928759894457,0.0015544041450777,0.0009013068949977,0.0,0.0088069354616754,0.0053372149442018,0.0,0.0,0.0,0.0050253360693487,0.0028268551236743,0.0087859424920126,0.0065084226646247,0.0032137118371719,0.0022205773501109,0.0059523809523807,0.0036283007458172,0.000460193281178,0.0057286072323665
10001,Kent,10,39.09581664264828,-75.50462926296153,10509748.0,28,0.005914949475750422,0.0,0.0,0.0016042000875018,0.0006609021314092,0.0013750429700928,5.4027770273920795e-05,0.0,0.0,0.0,0.0,0.0,0.0,0.0,0.0008715196550616,0.0,0.0,0.0,0.0,0.0011725784161815,0.0001766784452296,0.0,0.0,0.0,0.0,0.0,0.0,0.0,0.0
10003,New Castle,10,39.57802526811984,-75.63906173078017,68242613.0,28,0.06853635249944169,0.0,0.004154302670623,0.0014583637159105,0.0028088340584897,0.0055001718803711,0.0030795829056131,0.0,0.0002603488674824,0.0008802816901408,0.0070910290237465,0.0,0.0018026137899954,0.0,0.0063758543186086,0.0043668122270742,0.0,0.0,0.0079191698525395,0.0046484358641479,0.0014487632508832,0.0,0.0019142419601837,0.0076772004999107,0.0,0.0047619047619046,0.0010078613182826,0.0013805798435342,0.0
10005,Sussex,10,38.683194759271586,-75.33958848839286,19316369.0,28,0.0014330634078844728,0.0,0.0,0.0,0.0003304510657046,0.000572934570872,0.0002161110810956,0.0,0.0,0.0,0.0,0.0,0.0,0.0,0.0,0.0,0.0,0.0002428953121204,0.0,0.0,7.06713780918728e-05,0.0,0.0,0.0,0.0,0.0,0.0,0.0,0.0
11001,District of Columbia,11,38.90475807657078,-77.01628315205959,176501668.0,28,2.4473183893737485,0.0835240274599525,0.0276953511374862,0.0329590199795813,0.0700556259293892,0.0853672510599283,0.0951969312226429,0.0693467336683414,0.0510283780265544,0.2297535211267594,0.0984498680738757,0.0720207253886004,0.1577287066246043,0.0726256983240221,0.0654098435851529,0.2688015526443463,0.1854951185495116,0.080155452999756,0.0794647733478953,0.0952719963147486,0.0790459363957559,0.0820021299254509,0.0275650842266458,0.0432065702553103,0.0524056254626197,0.0404761904761892,0.0298326950211642,0.1251725724804405,0.0472610096670242
12001,Alachua,12,29.674758508056083,-82.35758323406417,19820853.0,28,0.006732892075875336,0.0,0.0,0.0,0.0002203007104697,0.0,0.0005132638176022,0.0030150753768844,0.0,0.0,0.0,0.0,0.0,0.0,0.0,0.0019408054342552,0.0,0.0,0.0,0.0002093890028895,3.53356890459364e-05,0.0007987220447284,0.0,0.0,0.0,0.0,0.0,0.0,0.0
12005,Bay,12,30.13214280091666,-85.6329487795263,12731669.0,28,0.0018915074662877365,0.0,0.0,0.0,0.0002753758880872,0.000572934570872,0.0,0.0,0.0,0.0,0.0,0.0,0.0,0.0,0.0,0.0,0.0,0.0,0.0,0.0,3.53356890459364e-05,0.0,0.0,0.0,0.0,0.0,0.0010078613182826,0.0,0.0
12009,Brevard,12,28.299751034466002,-80.70097694623632,39591386.0,28,0.05277884069030314,0.0004576659038901,0.0,0.0,0.0,0.0,0.0006483332432869,0.0,0.0,0.0,0.0,0.0,0.0,0.0,0.0023393422320075,0.0004852013585638,0.0,0.0,0.0,0.0001256334017337,3.53356890459364e-05,0.0002662406815761,0.0,0.0,0.001480384900074,0.0,0.0,0.0437183617119189,0.0032223415682062
12011,Broward,12,26.152329067823384,-80.46046047570975,162924303.0,28,0.0556761407499893,0.000228832951945,0.0007912957467853,0.000145836371591,0.0033045106570464,0.0050418242236736,0.0017018747636284,0.0,0.0005206977349648,0.0,0.0019788918205804,0.0,0.0076611086074807,0.0,0.0025686895096553,0.0014556040756914,0.0,0.0,0.0,0.0018845010260059,0.0016607773851588,0.0037273695420658,0.0007656967840734,0.0082128191394392,0.0002960769800148,0.0,0.0086676073372301,0.005062126092959,0.0
12015,Charlotte,12,26.897006508537046,-81.99739747606392,8701074.0,28,0.036982428434558276,0.0,0.0,0.0,0.0,0.0,0.0005943054730131,0.0100502512562814,0.0,0.0123239436619718,0.0004947229551449,0.0,0.0,0.0,0.000412825099766,0.0116448326055312,0.0,0.0,0.0,0.0,7.06713780918728e-05,0.0007987220447284,0.0,0.0,0.0005921539600296,0.0,0.0,0.0,0.0
12021,Collier,12,26.100605597205412,-81.44436659612407,31526854.0,28,0.003978272350138723,0.0,0.0,0.0,0.0,0.0,2.7013885136960397e-05,0.0,0.0,0.0,0.0,0.0,0.0,0.0,4.5869455529562866e-05,0.0,0.0,0.0,0.0,0.0005444114075128,0.0001766784452296,0.0002662406815761,0.0,0.0,0.0,0.000297619047619,0.0026204394275347,0.0,0.0
12031,Duval,12,30.335471866119576,-81.64806922641804,98042581.0,28,0.039904668922084,0.0,0.0003956478733926,0.0008750182295464,0.0042407886765432,0.0081356709063824,0.0009724998649304,0.0,0.0,0.0,0.00032981530343,0.0,0.0,0.0,0.0005045640108251,0.002426006792819,0.0,0.0002428953121204,0.0,0.0018845010260058,0.0020848056537099,0.0005324813631522,0.0,0.0057132654883055,0.0,0.0014880952380952,0.0100786131828259,0.0,0.0
12033,Escambia,12,30.526656728237516,-87.31388898326541,22677567.0,28,0.005652267868233082,0.0,0.0,0.0,0.000881202841879,0.0018333906267904,8.104165541088119e-05,0.0,0.0,0.0,0.0,0.0,0.0,0.0,0.0,0.0,0.0,0.0,0.0,0.0,0.0,0.0,0.0,0.0028566327441528,0.0,0.0,0.0,0.0,0.0
12039,Gadsden,12,30.579512311200208,-84.61359591131537,1742669.0,28,5.4027770273920795e-05,0.0,0.0,0.0,0.0,0.0,5.4027770273920795e-05,0.0,0.0,0.0,0.0,0.0,0.0,0.0,0.0,0.0,0.0,0.0,0.0,0.0,0.0,0.0,0.0,0.0,0.0,0.0,0.0,0.0,0.0
12041,Gilchrist,12,29.725779193210762,-82.80036133215889,535745.0,28,0.0008750182295464,0.0,0.0,0.0008750182295464,0.0,0.0,0.0,0.0,0.0,0.0,0.0,0.0,0.0,0.0,0.0,0.0,0.0,0.0,0.0,0.0,0.0,0.0,0.0,0.0,0.0,0.0,0.0,0.0,0.0
12053,Hernando,12,28.55763195461978,-82.5281737983539,6660824.0,28,0.0001377833714297481,0.0,0.0,0.0,0.0,0.0,5.4027770273920795e-05,0.0,0.0,0.0,0.0,0.0,0.0,0.0,0.0,0.0,0.0,0.0,0.0,8.37556011558273e-05,0.0,0.0,0.0,0.0,0.0,0.0,0.0,0.0,0.0
12055,Highlands,12,27.34326840683056,-81.34102714357117,3583095.0,28,0.0012633399375262,0.0,0.0,0.0,0.0,0.0,0.0,0.0,0.0,0.0,0.0,0.0,0.0,0.0,0.0,0.0,0.0,0.0,0.000819224467504,0.0,0.0,0.0,0.0,0.0,0.0004441154700222,0.0,0.0,0.0,0.0
12057,Hillsborough,12,27.89161899453577,-82.37037965259809,141424599.0,28,0.022345392895495593,0.0,0.000593471810089,0.0017500364590928,0.0011565787299663,0.002291738283488,0.001782916419039,0.0,0.0,0.0,0.001154353562005,0.0036269430051813,0.0009013068949976,0.0,0.0010549974771798,0.0,0.0,0.0,0.0005461496450026,0.0020938900288954,0.0009187279151943,0.0002662406815761,0.0,0.0003570790930191,0.0008882309400443,0.0,0.0002015722636565,0.0027611596870685,0.0
12061,Indian River,12,27.696525067736516,-80.57404514458096,10207144.0,28,0.005062126092959,0.0,0.0,0.0,0.0,0.0,0.0,0.0,0.0,0.0,0.0,0.0,0.0,0.0,0.0,0.0,0.0,0.0,0.0,0.0,0.0,0.0,0.0,0.0,0.0,0.0,0.0,0.005062126092959,0.0
12069,Lake,12,28.761204901289627,-81.71172190582853,15878160.0,28,0.0004322221621913,0.0,0.0,0.0,0.0,0.0,0.0004322221621913,0.0,0.0,0.0,0.0,0.0,0.0,0.0,0.0,0.0,0.0,0.0,0.0,0.0,0.0,0.0,0.0,0.0,0.0,0.0,0.0,0.0,0.0
12071,Lee,12,26.56365426996351,-81.98477720625425,50645899.0,28,0.005919349638688801,0.0,0.0,0.0,0.0,0.0,0.001917985844724,0.0,0.0,0.0,0.0,0.0,0.0,0.0,0.0009632585661207,0.0,0.0,0.0,0.0,0.0002093890028895,0.0026501766784451,0.0,0.0,0.0001785395465095,0.0,0.0,0.0,0.0,0.0
12073,Leon,12,30.458052367449636,-84.2780722475137,21300883.0,28,0.0056392411930778,0.0,0.0,0.0,0.0,0.0,0.0004322221621913,0.0,0.0,0.0,0.0,0.0,0.0,0.0,0.0,0.0,0.0,0.0,0.0,0.0007119226098245,0.0003533568904592,0.0,0.0,0.0,0.0,0.0,0.0,0.0041417395306028,0.0
12081,Manatee,12,27.47567626874998,-82.39273994006099,24057914.0,28,0.0013215972948641273,0.0,0.0,0.0,0.0,0.0,0.0,0.0,0.0,0.0,0.0,0.0010362694300518,0.0,0.0,0.0,0.0,0.0,0.0,0.0,8.37556011558273e-05,0.0,0.0,0.0,0.0,0.0,0.0,0.0002015722636565,0.0,0.0
12083,Marion,12,29.210271102327297,-82.05667660516573,15982712.0,28,0.0107122481733414,0.0009153318077803,0.0,0.0,0.0012116539075837,0.0013750429700928,0.000594305473013,0.0,0.0,0.0,0.0009894459102902,0.0,0.0,0.0,0.0001376083665886,0.0029112081513828,0.0,0.0,0.0019115237575095,0.000418778005779,0.0002473498233215,0.0,0.0,0.0,0.0,0.0,0.0,0.0,0.0
12085,Martin,12,27.081768310896173,-80.39852489335173,11887841.0,28,0.0038251451782785727,0.0004576659038901,0.0,0.0,0.0,0.0,0.0008104165541088,0.0,0.0,0.0,0.0,0.0005181347150259,0.0,0.0,0.0,0.0,0.0,0.0,0.0,0.0019682566271619,7.06713780918728e-05,0.0,0.0,0.0,0.0,0.0,0.0,0.0,0.0
12086,Miami-Dade,12,25.61052162820685,-80.50562456641171,239652386.0,28,0.2067578070802023,0.0043478260869564,0.007319485657764,0.0013125273443192,0.005011841163187,0.0059585195370688,0.0103463180074549,0.0,0.0049466284821659,0.0061619718309857,0.0113786279683371,0.0005181347150259,0.0153222172149616,0.0,0.0049997706527219,0.0029112081513828,0.00836820083682,0.0009715812484817,0.0019115237575095,0.0111394949537238,0.0107773851590097,0.0218317358892431,0.0053598774885144,0.0103552936975534,0.0004441154700222,0.0020833333333331,0.0449506147954036,0.0023009664058901,0.0057286072323665
12087,Monroe,12,25.040020508969665,-81.36620225232258,7652529.0,28,0.0007039607392637364,0.0,0.0,0.0,0.0,0.0,0.0004592360473283,0.0,0.0,0.0,0.0,0.0,0.0,0.0,0.0,0.0,0.0,0.0,0.0,0.0002093890028895,3.53356890459364e-05,0.0,0.0,0.0,0.0,0.0,0.0,0.0,0.0
12089,Nassau,12,30.610645079914843,-81.77151637078566,4833872.0,28,0.0012073186249564,0.0004576659038901,0.0003956478733926,0.0,0.0,0.0,0.0001890971959587,0.0,0.0,0.0,0.000164907651715,0.0,0.0,0.0,0.0,0.0,0.0,0.0,0.0,0.0,0.0,0.0,0.0,0.0,0.0,0.0,0.0,0.0,0.0
12091,Okaloosa,12,30.614995267494574,-86.5933467321673,17783356.0,28,0.007259689417675794,0.0009153318077803,0.0,0.0,0.0001101503552348,0.0,5.4027770273920795e-05,0.0,0.0,0.0,0.000164907651715,0.0,0.0031545741324921,0.0,0.0003210861887069,0.0,0.0,0.0,0.0,0.0006281670086686,7.06713780918728e-05,0.0,0.0,0.0,0.0,0.0,0.0,0.0018407731247123,0.0
12095,Orange,12,28.51458254864089,-81.32334223358379,149840652.0,28,0.0434225429482735,0.0,0.0,0.0021875455738661,0.0026436085256371,0.0024063251976624,0.0052136798314325,0.0020100502512562,0.0,0.0,0.000164907651715,0.0,0.0,0.0,0.002385211687537,0.0019408054342552,0.0,0.0004857906242408,0.0,0.0028476904392977,0.0046643109540629,0.0063897763578273,0.0,0.0014283163720764,0.0,0.0,0.0026204394275347,0.0046019328117806,0.0014321518080916
12097,Osceola,12,28.062524225460585,-81.14917488928491,18342260.0,28,0.0023203061453236,0.0,0.0,0.0,0.0,0.0,0.0006213193581499,0.0,0.0,0.0,0.0,0.0,0.0,0.0,0.0,0.0,0.0,0.0,0.0,0.0,0.0,0.0,0.0,0.0008926977325477,0.0,0.0,0.000806289054626,0.0,0.0
12099,Palm Beach,12,26.64764870787851,-80.43652079606233,131097206.0,28,0.08836708124254078,0.0006864988558352,0.0033630069238376,0.0030625638034124,0.0047915404527175,0.0019479775409648,0.0048895132097894,0.0,0.0,0.0,0.0024736147757255,0.0,0.0018026137899954,0.0,0.0039906426310715,0.0203784570596797,0.00278940027894,0.0060723828030118,0.0,0.0058628920809074,0.0076678445229678,0.0013312034078806,0.0019142419601837,0.0001785395465095,0.0047372316802368,0.0038690476190475,0.0026204394275346,0.0032213529682463,0.0007160759040458
12101,Pasco,12,28.30587625585608,-82.50519392855153,22139360.0,28,0.03241472944902483,0.0,0.0,0.0,0.0,0.0,0.0005402777027391,0.0,0.0057276750846133,0.0,0.0,0.0,0.0,0.0,0.0,0.0,0.0,0.0,0.0174767886400873,8.37556011558273e-05,0.0,0.0,0.0,0.0,0.0085862324204293,0.0,0.0,0.0,0.0
12103,Pinellas,12,27.903880549966996,-82.79873265336576,73043560.0,28,0.0037424985699583,0.0,0.0,0.0,0.0002753758880871,0.0003437607425232,0.0007023610135608,0.0,0.0,0.0,0.0,0.0,0.0,0.0,0.0,0.0,0.0,0.0,0.0002730748225013,0.0008375560115581,0.0008127208480565,0.0,0.0,0.0,0.0002960769800148,0.0,0.0002015722636565,0.0,0.0
12105,Polk,12,27.94882024897241,-81.69735983297372,41081699.0,28,0.00068024570337445,0.0,0.0001978239366963,0.0,0.0,0.0,0.0004052082770543,0.0,0.0,0.0,0.0,0.0,0.0,0.0,0.0,0.0,0.0,0.0,0.0,4.187780057791365e-05,3.53356890459364e-05,0.0,0.0,0.0,0.0,0.0,0.0,0.0,0.0
12107,Putnam,12,29.608604418433618,-81.74421197710447,3269121.0,28,0.0061486229310886995,0.0,0.0,0.0,0.0018725560389931,0.0038959550819296,0.0,0.0,0.0,0.0,0.0,0.0,0.0,0.0,0.0,0.0,0.0,0.0,0.0,0.0,0.0,0.0,0.0,0.0001785395465095,0.0,0.0,0.0002015722636565,0.0,0.0
12109,St. Johns,12,29.912023892218482,-81.40978797622165,16906187.0,28,0.0003566083982703,0.0,0.0,0.0,0.0,0.0,0.0001890971959587,0.0,0.0,0.0,0.0,0.0,0.0,0.0,0.0,0.0,0.0,0.0,0.0,0.0001675112023116,0.0,0.0,0.0,0.0,0.0,0.0,0.0,0.0,0.0
12111,St. Lucie,12,27.380923053048477,-80.4455947476772,15265226.0,28,0.0018780695737785275,0.0,0.0,0.0,0.0001101503552348,0.0,0.0011615970608892,0.0,0.0,0.0,0.0,0.0,0.0,0.0,0.0002752167331773,0.0,0.0,0.0,0.0,8.37556011558273e-05,0.0002473498233214,0.0,0.0,0.0,0.0,0.0,0.0,0.0,0.0
12113,Santa Rosa,12,30.676261155460907,-87.01202084824543,7299464.0,28,0.00022238441159458118,0.0,0.0,0.0,0.0,0.0,8.104165541088119e-05,0.0,0.0,0.0,0.0,0.0,0.0,0.0,0.0,0.0,0.0,0.0,0.0,0.0,0.0001413427561837,0.0,0.0,0.0,0.0,0.0,0.0,0.0,0.0
12115,Sarasota,12,27.180812979909867,-82.43398304993967,32549683.0,28,0.0026191428698817,0.0,0.0,0.0,0.0,0.0,0.0002971527365065,0.0,0.0,0.0,0.0,0.0,0.0,0.0,0.0,0.0,0.0,0.0,0.0,0.0003350224046232,0.0,0.0,0.0,0.0017853954650955,0.0,0.0,0.0002015722636565,0.0,0.0
12117,Seminole,12,28.71699895208122,-81.23628269653517,32977048.0,28,0.010972505054589148,0.0,0.0,0.0,5.507517761744782e-05,0.0,0.0005402777027391,0.0,0.0,0.0,0.0023087071240105,0.0,0.0,0.0,0.0046328150084857,0.0004852013585638,0.0,0.0004857906242409,0.0,0.0014238452196489,0.0001766784452296,0.0,0.0,0.0,0.0001480384900074,0.0,0.0,0.0,0.0007160759040458
12121,Suwannee,12,30.195534694872357,-82.99136518244636,1948898.0,28,0.009214487739497285,0.0,0.0,0.0,5.507517761744782e-05,0.0,0.0002701388513696,0.0,0.0,0.0008802816901408,0.000164907651715,0.0005181347150259,0.0013519603424966,0.0018621973929236,0.0002752167331773,0.0,0.0,0.0,0.0035499726925177,0.0002512668034674,3.53356890459364e-05,0.0,0.0,0.0,0.0,0.0,0.0,0.0,0.0
12127,Volusia,12,29.0634119104058,-81.14817592532403,27570630.0,28,0.0446985419444077,0.0006864988558352,0.0,0.0,0.002092856749463,0.0033230205110576,0.0009724998649305,0.0,0.0,0.0,0.0,0.0,0.0013519603424966,0.0,0.0016054309435345,0.0,0.0,0.0,0.0,0.0003769002052012,0.0002826855123674,0.0063897763578274,0.0,0.0,0.0013323464100666,0.0,0.0,0.0184077312471236,0.0078768349445041
12131,Walton,12,30.57083529050526,-86.17437073866557,6011364.0,28,0.0028767741456468877,0.0,0.0,0.0,0.0,0.0,2.7013885136960397e-05,0.0,0.0,0.0,0.0,0.0,0.0,0.0,0.0,0.0,0.0,0.0,0.000819224467504,8.37556011558273e-05,0.0001060070671378,0.0,0.0,0.0,0.0,0.0,0.0,0.0018407731247123,0.0
13009,Baldwin,13,33.06927160974386,-83.24957195187106,1845664.0,28,7.06713780918728e-05,0.0,0.0,0.0,0.0,0.0,0.0,0.0,0.0,0.0,0.0,0.0,0.0,0.0,0.0,0.0,0.0,0.0,0.0,0.0,7.06713780918728e-05,0.0,0.0,0.0,0.0,0.0,0.0,0.0,0.0
13015,Bartow,13,34.237620200863475,-84.84036341096902,7509899.0,28,0.00016895240068297578,0.0,0.0,0.0,0.0,0.0,0.0,0.0,0.0,0.0,0.0,0.0,0.0,0.0,9.173891105912572e-05,0.0,0.0,0.0,0.0,4.187780057791365e-05,3.53356890459364e-05,0.0,0.0,0.0,0.0,0.0,0.0,0.0,0.0
13021,Bibb,13,32.80649489321677,-83.69740237741324,10534079.0,28,0.0036380801678615625,0.0,0.0,0.0,0.0001652255328523,0.0,0.0001080555405478,0.0,0.0,0.0,0.0,0.0,0.0,0.0,4.5869455529562866e-05,0.0,0.0,0.0,0.0,0.0002093890028895,0.0031095406360424,0.0,0.0,0.0,0.0,0.0,0.0,0.0,0.0
13025,Brantley,13,31.196882102129518,-81.98199974437067,386352.0,28,4.187780057791365e-05,0.0,0.0,0.0,0.0,0.0,0.0,0.0,0.0,0.0,0.0,0.0,0.0,0.0,0.0,0.0,0.0,0.0,0.0,4.187780057791365e-05,0.0,0.0,0.0,0.0,0.0,0.0,0.0,0.0,0.0
13029,Bryan,13,32.01316223178225,-81.4421155824608,1831913.0,28,0.00046328093774300006,0.0,0.0,0.0,0.0,0.0,0.0,0.0,0.0,0.0,0.0,0.0,0.0,0.0,0.0,0.0,0.0,0.0,0.0,0.0002512668034674,0.0002120141342756,0.0,0.0,0.0,0.0,0.0,0.0,0.0,0.0
13031,Bulloch,13,32.39674985648236,-81.74300982851882,3460801.0,28,0.00046328093774300006,0.0,0.0,0.0,0.0,0.0,0.0,0.0,0.0,0.0,0.0,0.0,0.0,0.0,0.0,0.0,0.0,0.0,0.0,0.0002512668034674,0.0002120141342756,0.0,0.0,0.0,0.0,0.0,0.0,0.0,0.0
13045,Carroll,13,33.582773425392006,-85.079824817233,7943911.0,28,0.001804912578667329,0.0,0.0,0.0,5.507517761744782e-05,0.0001145869141744,8.104165541088119e-05,0.0,0.0,0.0,0.0,0.0,0.0,0.0,0.0005504334663547,0.0,0.0,0.0,0.0,0.0005444114075128,0.0004593639575971,0.0,0.0,0.0,0.0,0.0,0.0,0.0,0.0
13051,Chatham,13,31.973887024736346,-81.09382818925114,27506006.0,28,0.007717851180850621,0.0,0.001780415430267,0.0,0.0,0.0,5.4027770273920795e-05,0.0,0.0,0.0,0.0,0.0,0.0,0.0,0.0001376083665886,0.0,0.0,0.0,0.0,0.0006281670086685,0.0005653710247349,0.0039936102236421,0.0,0.0003570790930191,0.0,0.0,0.0002015722636565,0.0,0.0
13053,Chattahoochee,13,32.346956783761975,-84.78709047477105,1977867.0,28,4.187780057791365e-05,0.0,0.0,0.0,0.0,0.0,0.0,0.0,0.0,0.0,0.0,0.0,0.0,0.0,0.0,0.0,0.0,0.0,0.0,4.187780057791365e-05,0.0,0.0,0.0,0.0,0.0,0.0,0.0,0.0,0.0
13057,Cherokee,13,34.24391042972672,-84.47623799805062,12183705.0,28,0.032797741819141704,0.0,0.0,0.0007291818579553,0.0002753758880872,0.0,0.0001350694256847,0.0,0.0,0.0017605633802816,0.0046174142480211,0.0,0.0,0.0,0.0091738911059125,0.0004852013585638,0.0,0.0,0.0,0.0001256334017337,0.0001413427561837,0.0,0.0007656967840735,0.0041064095697196,0.0,0.000297619047619,0.0030235839548478,0.0,0.0071607590404582
13059,Clarke,13,33.951243410450424,-83.3673171445083,10262529.0,28,0.001264626876534595,0.0,0.0003956478733926,0.0,0.0,0.0,8.104165541088119e-05,0.0,0.0,0.0,0.0,0.0,0.0,0.0,0.0,0.0,0.0,0.0,0.0,4.187780057791365e-05,0.0001413427561837,0.0,0.0,0.0,0.0,0.0,0.0006047167909695,0.0,0.0
13061,Clay,13,31.626237200749728,-84.98001971721371,112591.0,28,0.0002701388513696,0.0,0.0,0.0,0.0,0.0,0.0002701388513696,0.0,0.0,0.0,0.0,0.0,0.0,0.0,0.0,0.0,0.0,0.0,0.0,0.0,0.0,0.0,0.0,0.0,0.0,0.0,0.0,0.0,0.0
13067,Cobb,13,33.94143525513061,-84.57668968928841,78107587.0,28,0.0071621792736182004,0.000228832951945,0.0,0.0,0.0006058269537919,0.0,0.0007293748986978,0.0,0.0013017443374121,0.0,0.00032981530343,0.0,0.0,0.0,0.0001376083665886,0.0,0.0,0.0007286859363614,0.0,0.0024289124335188,0.0006713780918726,0.0,0.0,0.0,0.0,0.0,0.0,0.0,0.0
13085,Dawson,13,34.44427274781736,-84.17053565137681,1351483.0,28,0.0002708043237045085,0.0,0.0,0.0,0.0,0.0,8.104165541088119e-05,0.0,0.0,0.0,0.0,0.0,0.0,0.0,0.0,0.0,0.0,0.0,0.0,8.37556011558273e-05,0.0001060070671378,0.0,0.0,0.0,0.0,0.0,0.0,0.0,0.0
13087,Decatur,13,30.878295966723975,-84.57911339118047,1398998.0,28,0.0007912957467852,0.0,0.0007912957467852,0.0,0.0,0.0,0.0,0.0,0.0,0.0,0.0,0.0,0.0,0.0,0.0,0.0,0.0,0.0,0.0,0.0,0.0,0.0,0.0,0.0,0.0,0.0,0.0,0.0,0.0
13089,DeKalb,13,33.77154514472631,-84.22634484975428,56472682.0,28,0.019619641048868205,0.0,0.002373887240356,0.0,0.0,0.0,0.0022151385812304,0.0,0.0,0.0,0.0,0.0,0.0,0.0,0.0016513003990641,0.004852013585638,0.0,0.0004857906242409,0.0,0.0027639348381422,0.001554770318021,0.0,0.0,0.0,0.0002960769800148,0.0,0.0034267284821608,0.0,0.0
13113,Fayette,13,33.41387553392598,-84.4942602061014,7888422.0,28,0.0009049785286816273,0.0,0.0001978239366963,0.0,0.0,0.0,0.0,0.0,0.0,0.0,0.0,0.0,0.0,0.0,0.0001376083665886,0.0,0.0,0.0004857906242409,0.0,8.37556011558273e-05,0.0,0.0,0.0,0.0,0.0,0.0,0.0,0.0,0.0
13117,Forsyth,13,34.225504036892985,-84.12509573858846,14922169.0,28,0.00017311906047568447,0.0,0.0,0.0,0.0,0.0,5.4027770273920795e-05,0.0,0.0,0.0,0.0,0.0,0.0,0.0,0.0,0.0,0.0,0.0,0.0,8.37556011558273e-05,3.53356890459364e-05,0.0,0.0,0.0,0.0,0.0,0.0,0.0,0.0
13119,Franklin,13,34.375374104304356,-83.22909663742568,1255510.0,28,0.0,0.0,0.0,0.0,0.0,0.0,0.0,0.0,0.0,0.0,0.0,0.0,0.0,0.0,0.0,0.0,0.0,0.0,0.0,0.0,0.0,0.0,0.0,0.0,0.0,0.0,0.0,0.0,0.0
13121,Fulton,13,33.78991437274144,-84.46765009309631,231487747.0,28,0.30778441080440316,0.009610983981693,0.0138476755687435,0.0068543094647801,0.0031943603018115,0.000572934570872,0.0157761089199832,0.0050251256281406,0.0002603488674824,0.0237676056338026,0.0115435356200524,0.0088082901554403,0.0153222172149611,0.0093109869646182,0.0159167010687577,0.0334788937409023,0.0,0.0019431624969637,0.0098306936100491,0.0150341304074695,0.0223321554770304,0.0311501597444085,0.0011485451761102,0.0023210141046241,0.0196891191709842,0.0044642857142854,0.000806289054626,0.0128854118729864,0.0128893662728247
13127,Glynn,13,31.21329618808731,-81.49362431163331,5780083.0,28,0.0003180212014133,0.0,0.0,0.0,0.0,0.0,0.0,0.0,0.0,0.0,0.0,0.0,0.0,0.0,0.0,0.0,0.0,0.0,0.0,0.0,0.0003180212014133,0.0,0.0,0.0,0.0,0.0,0.0,0.0,0.0
13129,Gordon,13,34.50319159370632,-84.8759211121477,3142403.0,28,0.0,0.0,0.0,0.0,0.0,0.0,0.0,0.0,0.0,0.0,0.0,0.0,0.0,0.0,0.0,0.0,0.0,0.0,0.0,0.0,0.0,0.0,0.0,0.0,0.0,0.0,0.0,0.0,0.0
13135,Gwinnett,13,33.96167186449061,-84.02364691497867,68140574.0,28,0.0339339405096934,0.0068649885583523,0.0007912957467853,0.0,0.0001652255328523,0.0003437607425232,0.0002971527365065,0.0,0.0,0.0140845070422535,0.0026385224274405,0.0005181347150259,0.0,0.0,0.0008256501995319,0.0029112081513828,0.0,0.0,0.0002730748225013,0.0007119226098244,0.0012014134275617,0.0,0.0007656967840735,0.0003570790930191,0.0011843079200592,0.0,0.0,0.0,0.0
13137,Habersham,13,34.63096950902573,-83.53113154306463,1867935.0,28,3.53356890459364e-05,0.0,0.0,0.0,0.0,0.0,0.0,0.0,0.0,0.0,0.0,0.0,0.0,0.0,0.0,0.0,0.0,0.0,0.0,0.0,3.53356890459364e-05,0.0,0.0,0.0,0.0,0.0,0.0,0.0,0.0
13139,Hall,13,34.316804479871905,-83.81977550327142,16640845.0,28,0.0076320984763473005,0.0,0.0,0.000145836371591,0.0,0.0,0.0,0.0,0.0007810466024472,0.0,0.0006596306068601,0.0,0.0,0.0,0.0,0.0,0.0,0.0,0.0049153468050245,0.0006700448092465,0.0,0.0,0.0,0.0,0.0,0.0,0.0,0.000460193281178,0.0
13157,Jackson,13,34.1339098056936,-83.5664002650096,5849957.0,28,0.0022051473588053996,0.0,0.0,0.0,0.0,0.0,0.0,0.0,0.0,0.0,0.0,0.0,0.0,0.0,0.0,0.0,0.0,0.0,0.0,0.0016751120231165,0.0005300353356889,0.0,0.0,0.0,0.0,0.0,0.0,0.0,0.0
13169,Jones,13,33.025104015211795,-83.5604855474465,558085.0,28,5.4027770273920795e-05,0.0,0.0,0.0,0.0,0.0,5.4027770273920795e-05,0.0,0.0,0.0,0.0,0.0,0.0,0.0,0.0,0.0,0.0,0.0,0.0,0.0,0.0,0.0,0.0,0.0,0.0,0.0,0.0,0.0,0.0
13179,Liberty,13,31.807239009563837,-81.45576484648103,4879737.0,28,0.0005173087080169209,0.0,0.0,0.0,0.0,0.0,5.4027770273920795e-05,0.0,0.0,0.0,0.0,0.0,0.0,0.0,0.0,0.0,0.0,0.0,0.0,0.0002512668034674,0.0002120141342756,0.0,0.0,0.0,0.0,0.0,0.0,0.0,0.0
13195,Madison,13,34.12777151647698,-83.20901353635074,766468.0,28,0.0,0.0,0.0,0.0,0.0,0.0,0.0,0.0,0.0,0.0,0.0,0.0,0.0,0.0,0.0,0.0,0.0,0.0,0.0,0.0,0.0,0.0,0.0,0.0,0.0,0.0,0.0,0.0,0.0
13207,Monroe,13,33.01383613403952,-83.91870764844217,1732070.0,28,3.53356890459364e-05,0.0,0.0,0.0,0.0,0.0,0.0,0.0,0.0,0.0,0.0,0.0,0.0,0.0,0.0,0.0,0.0,0.0,0.0,0.0,3.53356890459364e-05,0.0,0.0,0.0,0.0,0.0,0.0,0.0,0.0
13215,Muscogee,13,32.50996259930279,-84.87703605661761,13222197.0,28,0.0032706942386872,0.0,0.0003956478733926,0.0,0.0,0.0,0.0,0.0,0.0,0.0,0.0,0.0,0.0,0.0,0.0002293472776478,0.0,0.0,0.0,0.0,0.0001256334017337,0.0001766784452296,0.0010649627263045,0.0,0.0,0.0,0.0,0.0,0.0009203865623561,0.0003580379520229
13217,Newton,13,33.555018539079875,-83.850191054259,4050415.0,28,0.000418778005779,0.0,0.0,0.0,0.0,0.0,0.0,0.0,0.0,0.0,0.0,0.0,0.0,0.0,0.0,0.0,0.0,0.0,0.0,0.000418778005779,0.0,0.0,0.0,0.0,0.0,0.0,0.0,0.0,0.0
13225,Peach,13,32.56878040820823,-83.82690544050004,1168461.0,28,5.4027770273920795e-05,0.0,0.0,0.0,0.0,0.0,5.4027770273920795e-05,0.0,0.0,0.0,0.0,0.0,0.0,0.0,0.0,0.0,0.0,0.0,0.0,0.0,0.0,0.0,0.0,0.0,0.0,0.0,0.0,0.0,0.0
13245,Richmond,13,33.35962801934193,-82.07355236929197,16177582.0,28,0.0005788518709568999,0.0,0.0,0.0004375091147732,0.0,0.0,0.0,0.0,0.0,0.0,0.0,0.0,0.0,0.0,0.0,0.0,0.0,0.0,0.0,0.0,0.0001413427561837,0.0,0.0,0.0,0.0,0.0,0.0,0.0,0.0
13247,Rockdale,13,33.65421118908063,-84.02665546802099,5445832.0,28,0.000310744023306,0.0,0.0,0.000145836371591,0.0,0.0,0.0,0.0,0.0,0.0,0.000164907651715,0.0,0.0,0.0,0.0,0.0,0.0,0.0,0.0,0.0,0.0,0.0,0.0,0.0,0.0,0.0,0.0,0.0,0.0
13251,Screven,13,32.75047865928298,-81.61192522037808,393217.0,28,0.0002867824591874728,0.0,0.0,0.0,0.0,0.0,0.0002161110810956,0.0,0.0,0.0,0.0,0.0,0.0,0.0,0.0,0.0,0.0,0.0,0.0,0.0,7.06713780918728e-05,0.0,0.0,0.0,0.0,0.0,0.0,0.0,0.0
13261,Sumter,13,32.039980827792284,-84.19703986888251,1295507.0,28,5.4027770273920795e-05,0.0,0.0,0.0,0.0,0.0,5.4027770273920795e-05,0.0,0.0,0.0,0.0,0.0,0.0,0.0,0.0,0.0,0.0,0.0,0.0,0.0,0.0,0.0,0.0,0.0,0.0,0.0,0.0,0.0,0.0
13277,Tift,13,31.457414035415844,-83.52658597510985,2627214.0,28,2.7013885136960397e-05,0.0,0.0,0.0,0.0,0.0,2.7013885136960397e-05,0.0,0.0,0.0,0.0,0.0,0.0,0.0,0.0,0.0,0.0,0.0,0.0,0.0,0.0,0.0,0.0,0.0,0.0,0.0,0.0,0.0,0.0
13281,Towns,13,34.91670642239778,-83.73727130967049,534650.0,28,7.06713780918728e-05,0.0,0.0,0.0,0.0,0.0,0.0,0.0,0.0,0.0,0.0,0.0,0.0,0.0,0.0,0.0,0.0,0.0,0.0,0.0,7.06713780918728e-05,0.0,0.0,0.0,0.0,0.0,0.0,0.0,0.0
13285,Troup,13,33.03346235751736,-85.028357431781,4772326.0,28,0.001354743399435773,0.0,0.0001978239366963,0.0,0.0,0.0,0.0,0.0,0.0,0.0,0.0,0.0,0.0,0.0,0.0005045640108251,0.0,0.0,0.0,0.0,0.0,7.06713780918728e-05,0.0,0.0,0.0001785395465095,0.0,0.0,0.000403144527313,0.0,0.0
13297,Walton,13,33.78154732573403,-83.73383423261434,3920931.0,28,0.0001620833108217,0.0,0.0,0.0,0.0,0.0,0.0001620833108217,0.0,0.0,0.0,0.0,0.0,0.0,0.0,0.0,0.0,0.0,0.0,0.0,0.0,0.0,0.0,0.0,0.0,0.0,0.0,0.0,0.0,0.0
13313,Whitfield,13,34.805530286122064,-84.96729334576644,7370579.0,28,0.0030645695849812003,0.0,0.0,0.0,0.0,0.0,0.0007023610135609,0.0,0.0,0.0,0.0,0.0,0.0,0.0,0.0,0.0019408054342552,0.0,0.0,0.0,0.0002093890028895,0.0002120141342756,0.0,0.0,0.0,0.0,0.0,0.0,0.0,0.0
15001,Hawaii,15,19.602493742104468,-155.52279575008177,11069167.0,28,0.010467492567287,0.0,0.0,0.0,0.0,0.0,0.0001890971959587,0.0010050251256281,0.0,0.0026408450704225,0.000164907651715,0.0015544041450777,0.0009013068949977,0.0,0.0001376083665886,0.0,0.0,0.0,0.0,0.0002512668034674,0.0,0.0005324813631522,0.0,0.0012497768255668,0.0,0.0,0.0,0.0018407731247123,0.0
15003,Honolulu,15,23.972846842538882,-164.33716758033037,81675550.0,28,0.09926345510966582,0.0,0.0003956478733926,0.000145836371591,0.0030291347689594,0.0019479775409648,0.0075909017234851,0.0030150753768843,0.0005206977349648,0.0017605633802816,0.0031332453825854,0.0020725388601036,0.0049571879224876,0.0037243947858473,0.0015595614880049,0.002426006792819,0.0,0.0,0.0016384489350081,0.0113488839566139,0.0069611307420488,0.0082534611288604,0.0053598774885145,0.0112479914301015,0.0048852701702442,0.0,0.0038298730094736,0.0087436723423836,0.0007160759040458
15007,Kauai,15,22.01155108183532,-159.70596440964354,5221440.0,28,0.05834638054385679,0.0034324942791762,0.0009891196834816,0.0,0.0,0.0,0.0003511805067804,0.0,0.0,0.0132042253521126,0.0039577836411609,0.0056994818652849,0.0081117620549797,0.0204841713221601,0.0,0.0,0.0,0.0012144765606023,0.0,0.0007956782109803,0.0001060070671378,0.0,0.0,0.0,0.0,0.0,0.0,0.0,0.0
15009,Maui,15,20.86822072113913,-156.61634928940438,,28,0.0036138051950826,0.0,0.0003956478733926,0.0,0.0,0.0,0.0021070830406826,0.0,0.0,0.0,0.0,0.0,0.0,0.0,0.0,0.0,0.0,0.0,0.0,0.0010050672138696,0.0001060070671378,0.0,0.0,0.0,0.0,0.0,0.0,0.0,0.0
16001,Ada,16,43.45060364621434,-116.24090169777016,43085592.0,28,0.021500163008317797,0.0,0.0,0.0005833454863642,0.0002753758880871,0.0,0.0014317359122588,0.0,0.0005206977349648,0.0008802816901408,0.0,0.0,0.0,0.0,0.0016513003990641,0.0067928190198932,0.0,0.0048579062424095,0.0002730748225013,0.0005025336069348,0.0006360424028267,0.0002662406815761,0.0,0.0,0.0023686158401184,0.0,0.0,0.000460193281178,0.0
16005,Bannock,16,42.66784456076126,-112.22388863634619,4012133.0,28,0.0019408054342552,0.0,0.0,0.0,0.0,0.0,0.0,0.0,0.0,0.0,0.0,0.0,0.0,0.0,0.0,0.0019408054342552,0.0,0.0,0.0,0.0,0.0,0.0,0.0,0.0,0.0,0.0,0.0,0.0,0.0
16013,Blaine,16,43.41133850575508,-113.97657455550527,2382481.0,28,0.0040738016224646,0.0,0.0001978239366963,0.000145836371591,0.0004406014209395,0.0,0.0001890971959587,0.0,0.0005206977349648,0.0,0.0,0.0,0.0,0.0,0.0003210861887069,0.0,0.0,0.0012144765606023,0.0,0.0003350224046233,0.0001766784452296,0.0005324813631522,0.0,0.0,0.0,0.0,0.0,0.0,0.0
16017,Bonner,16,48.29936098199905,-116.60043616674245,2382117.0,28,0.000460193281178,0.0,0.0,0.0,0.0,0.0,0.0,0.0,0.0,0.0,0.0,0.0,0.0,0.0,0.0,0.0,0.0,0.0,0.0,0.0,0.0,0.0,0.0,0.0,0.0,0.0,0.0,0.000460193281178,0.0
16019,Bonneville,16,43.387863877700596,-111.61366655482502,8983757.0,28,0.17581166559256342,0.0022883295194508,0.002967359050445,0.0,0.0009913531971139,0.0,0.0005672915878761,0.0030150753768844,0.0018224420723769,0.0,0.0034630606860157,0.0010362694300518,0.0,0.0,0.0022476033209484,0.1300339640950992,0.00418410041841,0.0055865921787708,0.0081922446750408,0.0024707902340967,0.0020494699646642,0.0023961661341851,0.0,0.0024995536511336,0.0,0.0,0.0,0.0,0.0
16027,Canyon,16,43.62487880558589,-116.70896185108766,10799916.0,28,0.0005461496450027,0.0,0.0,0.0,0.0,0.0,0.0,0.0,0.0,0.0,0.0,0.0,0.0,0.0,0.0,0.0,0.0,0.0,0.0005461496450027,0.0,0.0,0.0,0.0,0.0,0.0,0.0,0.0,0.0,0.0
16053,Jerome,16,42.689936870945544,-114.26374473373585,1806162.0,28,0.0004576659038901,0.0004576659038901,0.0,0.0,0.0,0.0,0.0,0.0,0.0,0.0,0.0,0.0,0.0,0.0,0.0,0.0,0.0,0.0,0.0,0.0,0.0,0.0,0.0,0.0,0.0,0.0,0.0,0.0,0.0
16055,Kootenai,16,47.67392031172787,-116.70174349097795,10583848.0,28,0.0044999285444885994,0.0,0.0,0.0,0.0001101503552348,0.0,0.0003781943919174,0.0,0.0,0.0,0.0,0.0,0.0,0.0,0.0005504334663547,0.0004852013585638,0.0,0.0,0.0,0.0027639348381423,0.0002120141342756,0.0,0.0,0.0,0.0,0.0,0.0,0.0,0.0
16057,Latah,16,46.81594640096972,-116.71176383418587,1991090.0,28,0.009849863542867,0.0,0.0,0.000145836371591,0.0,0.0,0.0,0.0,0.0,0.0,0.0,0.0,0.0,0.0,0.0,0.009704027171276,0.0,0.0,0.0,0.0,0.0,0.0,0.0,0.0,0.0,0.0,0.0,0.0,0.0
16085,Valley,16,44.765810494116984,-115.56749513267707,745080.0,28,0.0002093890028895,0.0,0.0,0.0,0.0,0.0,0.0,0.0,0.0,0.0,0.0,0.0,0.0,0.0,0.0,0.0,0.0,0.0,0.0,0.0002093890028895,0.0,0.0,0.0,0.0,0.0,0.0,0.0,0.0,0.0
17001,Adams,17,39.987773326599495,-91.18841120225734,4505381.0,28,0.0016978392568952,0.0,0.0,0.0,0.0,0.0,0.0,0.0,0.0,0.0,0.0,0.0,0.0,0.0,0.0012384752992981,0.0,0.0,0.0,0.0,0.0,0.0004593639575971,0.0,0.0,0.0,0.0,0.0,0.0,0.0,0.0
17019,Champaign,17,40.13984494894997,-88.19917957957408,14822272.0,28,0.08485032389780828,0.0,0.0013847675568742,0.0,0.0008261276642616,0.0003437607425232,0.0012426387163,0.0,0.0,0.01056338028169,0.0051121372031661,0.0005181347150259,0.0234339792699413,0.0,0.0031191229760101,0.0111596312469674,0.0069735006973499,0.0,0.0043691971600218,0.0030152016416096,0.0007420494699645,0.0023961661341852,0.0,0.0,0.0025166543301258,0.0023809523809522,0.0002015722636565,0.0027611596870685,0.0017901897601145
17021,Christian,17,39.5457010884469,-89.27726324580104,1978481.0,28,2.7013885136960397e-05,0.0,0.0,0.0,0.0,0.0,2.7013885136960397e-05,0.0,0.0,0.0,0.0,0.0,0.0,0.0,0.0,0.0,0.0,0.0,0.0,0.0,0.0,0.0,0.0,0.0,0.0,0.0,0.0,0.0,0.0
17031,Cook,17,41.895162295082535,-87.64615045826305,521617262.0,28,0.995289674900663,0.0057208237986264,0.034421364985162,0.0182295464488832,0.0327146555047614,0.0358657041365873,0.035928467232154,0.0211055276381906,0.0088518614944019,0.109154929577464,0.0559036939313966,0.0067357512953366,0.0576836412798544,0.0037243947858473,0.0371083895234145,0.0980106744298879,0.0069735006973499,0.0272042749574928,0.012288367012561,0.0481175928640187,0.030106007067135,0.1419062832800843,0.0248851454823886,0.0103552936975538,0.0272390821613616,0.0083333333333326,0.0298326950211644,0.0432581684307399,0.0236305048335122
17037,DeKalb,17,41.89320092032408,-88.7703232140471,5380745.0,28,0.0015533733642037466,0.0,0.0,0.0,0.0,0.0,5.4027770273920795e-05,0.0,0.0,0.0,0.0004947229551451,0.0,0.0,0.0,9.173891105912572e-05,0.0,0.0,0.0,0.0,0.0,0.0005300353356889,0.0,0.0003828483920367,0.0,0.0,0.0,0.0,0.0,0.0
17043,DuPage,17,41.85189077827202,-88.08557508634416,124271475.0,28,0.08023407704807552,0.0009153318077803,0.0019782393669632,0.0010208546011373,0.0007159773090267,0.0010312822275696,0.0014587497973956,0.0020100502512562,0.0005206977349648,0.0017605633802816,0.0019788918205803,0.0020725388601036,0.0009013068949977,0.0037243947858473,0.0037154258978942,0.0203784570596797,0.00697350069735,0.0004857906242409,0.0010922992900053,0.0073286151011339,0.0105300353356883,0.002396166134185,0.0007656967840735,0.0008926977325477,0.0010362694300518,0.001488095238095,0.000403144527313,0.0023009664058901,0.0003580379520229
17045,Edgar,17,39.67840097968542,-87.74556982468297,1024106.0,28,2.7013885136960397e-05,0.0,0.0,0.0,0.0,0.0,2.7013885136960397e-05,0.0,0.0,0.0,0.0,0.0,0.0,0.0,0.0,0.0,0.0,0.0,0.0,0.0,0.0,0.0,0.0,0.0,0.0,0.0,0.0,0.0,0.0
17049,Effingham,17,39.05974577070214,-88.5898304487389,2836937.0,28,2.7013885136960397e-05,0.0,0.0,0.0,0.0,0.0,2.7013885136960397e-05,0.0,0.0,0.0,0.0,0.0,0.0,0.0,0.0,0.0,0.0,0.0,0.0,0.0,0.0,0.0,0.0,0.0,0.0,0.0,0.0,0.0,0.0
17073,Henry,17,41.35301740547214,-90.13149183190649,2024967.0,28,2.7013885136960397e-05,0.0,0.0,0.0,0.0,0.0,2.7013885136960397e-05,0.0,0.0,0.0,0.0,0.0,0.0,0.0,0.0,0.0,0.0,0.0,0.0,0.0,0.0,0.0,0.0,0.0,0.0,0.0,0.0,0.0,0.0
17075,Iroquois,17,40.747015170366,-87.82429728806821,1397653.0,28,0.0001978239366963,0.0,0.0001978239366963,0.0,0.0,0.0,0.0,0.0,0.0,0.0,0.0,0.0,0.0,0.0,0.0,0.0,0.0,0.0,0.0,0.0,0.0,0.0,0.0,0.0,0.0,0.0,0.0,0.0,0.0
17077,Jackson,17,37.78505383707768,-89.3820233749869,3205291.0,28,2.7013885136960397e-05,0.0,0.0,0.0,0.0,0.0,2.7013885136960397e-05,0.0,0.0,0.0,0.0,0.0,0.0,0.0,0.0,0.0,0.0,0.0,0.0,0.0,0.0,0.0,0.0,0.0,0.0,0.0,0.0,0.0,0.0
17081,Jefferson,17,38.30045209723115,-88.92401532751622,2327425.0,28,8.104165541088119e-05,0.0,0.0,0.0,0.0,0.0,8.104165541088119e-05,0.0,0.0,0.0,0.0,0.0,0.0,0.0,0.0,0.0,0.0,0.0,0.0,0.0,0.0,0.0,0.0,0.0,0.0,0.0,0.0,0.0,0.0
17083,Jersey,17,39.08546214427707,-90.35652149539459,672723.0,28,0.0,0.0,0.0,0.0,0.0,0.0,0.0,0.0,0.0,0.0,0.0,0.0,0.0,0.0,0.0,0.0,0.0,0.0,0.0,0.0,0.0,0.0,0.0,0.0,0.0,0.0,0.0,0.0,0.0
17085,Jo Daviess,17,42.36580442087331,-90.2124653327634,1069450.0,28,0.0003781943919174,0.0,0.0,0.0,0.0,0.0,0.0003781943919174,0.0,0.0,0.0,0.0,0.0,0.0,0.0,0.0,0.0,0.0,0.0,0.0,0.0,0.0,0.0,0.0,0.0,0.0,0.0,0.0,0.0,0.0
17089,Kane,17,41.93864245149894,-88.42865749710128,35340289.0,28,0.006471370223757973,0.0,0.0033630069238377,0.0,0.0002753758880871,0.0,0.0004322221621913,0.0,0.0,0.0,0.0,0.0,0.0,0.0,0.0,0.0,0.0,0.0,0.0,0.0003769002052011,7.06713780918728e-05,0.0010649627263045,0.0,0.0,0.0008882309400444,0.0,0.0,0.0,0.0
17091,Kankakee,17,41.137773250509625,-87.86193778992443,8725053.0,28,6.23495741828968e-05,0.0,0.0,0.0,0.0,0.0,2.7013885136960397e-05,0.0,0.0,0.0,0.0,0.0,0.0,0.0,0.0,0.0,0.0,0.0,0.0,0.0,3.53356890459364e-05,0.0,0.0,0.0,0.0,0.0,0.0,0.0,0.0
17095,Knox,17,40.93165018408902,-90.21323587048458,2246772.0,28,0.006515379017129099,0.0,0.0,0.0024792183170482,0.0,0.0,0.0,0.0,0.0023431398073418,0.0,0.0,0.0,0.0,0.0,0.0011008669327095,0.0,0.0,0.0,0.0,0.0,0.0,0.0,0.0,0.0,0.0005921539600296,0.0,0.0,0.0,0.0
17097,Lake,17,42.32558265048251,-87.63120957554034,80689644.0,28,0.024183739434009702,0.0,0.0001978239366963,0.0004375091147732,0.0009362780194964,0.0019479775409648,0.0015127775676696,0.0,0.0,0.0,0.0023087071240105,0.0,0.0,0.0,0.0031649924315397,0.0,0.0,0.0,0.0,0.00180074542485,0.0005300353356889,0.005591054313099,0.0,0.0014283163720763,0.0002960769800148,0.0,0.0040314452731302,0.0,0.0
17099,LaSalle,17,41.34365185166791,-88.88599670188238,7724563.0,28,7.06713780918728e-05,0.0,0.0,0.0,0.0,0.0,0.0,0.0,0.0,0.0,0.0,0.0,0.0,0.0,0.0,0.0,0.0,0.0,0.0,0.0,7.06713780918728e-05,0.0,0.0,0.0,0.0,0.0,0.0,0.0,0.0
17111,McHenry,17,42.324275365570855,-88.4524175892768,15169879.0,28,0.0002597685740504728,0.0,0.0,0.0,0.0,0.0,0.0001890971959586,0.0,0.0,0.0,0.0,0.0,0.0,0.0,0.0,0.0,0.0,0.0,0.0,0.0,7.06713780918728e-05,0.0,0.0,0.0,0.0,0.0,0.0,0.0,0.0
17113,McLean,17,40.49083446207446,-88.84740299204607,15005648.0,28,0.003885462871665148,0.0,0.0001978239366963,0.0,5.507517761744782e-05,0.0,0.0006753471284239,0.0,0.0,0.0,0.0,0.0005181347150259,0.0,0.0,0.0,0.0004852013585638,0.0,0.0,0.0,0.0014238452196489,0.0005300353356889,0.0,0.0,0.0,0.0,0.0,0.0,0.0,0.0
17115,Macon,17,39.859880250892914,-88.9615822410684,8822934.0,28,0.0019199213104971,0.0,0.0,0.0,0.0,0.0,0.0,0.0,0.0,0.0,0.00032981530343,0.0,0.0,0.0,0.0,0.0,0.0,0.0,0.0,0.0,0.0015901060070671,0.0,0.0,0.0,0.0,0.0,0.0,0.0,0.0
17119,Madison,17,38.82971955143664,-89.90486477540479,14572453.0,28,0.0002708043237045085,0.0,0.0,0.0,0.0,0.0,8.104165541088119e-05,0.0,0.0,0.0,0.0,0.0,0.0,0.0,0.0,0.0,0.0,0.0,0.0,8.37556011558273e-05,0.0001060070671378,0.0,0.0,0.0,0.0,0.0,0.0,0.0,0.0
17143,Peoria,17,40.787909530147296,-89.76011920052402,16424962.0,28,0.005239047342236199,0.0,0.0,0.0,0.0,0.0,0.0004052082770543,0.0020100502512562,0.0,0.0,0.0,0.0020725388601036,0.0,0.0,4.5869455529562866e-05,0.0,0.0,0.0,0.0,0.0006700448092466,3.53356890459364e-05,0.0,0.0,0.0,0.0,0.0,0.0,0.0,0.0
17155,Putnam,17,41.20446642123819,-89.28579158849266,405760.0,28,0.0003956478733926,0.0,0.0003956478733926,0.0,0.0,0.0,0.0,0.0,0.0,0.0,0.0,0.0,0.0,0.0,0.0,0.0,0.0,0.0,0.0,0.0,0.0,0.0,0.0,0.0,0.0,0.0,0.0,0.0,0.0
17161,Rock Island,17,41.4673678733089,-90.56801580109598,12472249.0,28,0.013175749860652935,0.0,0.0015825914935707,0.0018958728306839,0.0001652255328523,0.0,5.4027770273920795e-05,0.0,0.0,0.0,0.0004947229551451,0.0046632124352331,0.0,0.0,0.0005045640108251,0.002426006792819,0.0,0.0,0.0,4.187780057791365e-05,0.0002826855123674,0.0010649627263045,0.0,0.0,0.0,0.0,0.0,0.0,0.0
17167,Sangamon,17,39.758115308774556,-89.65910387526709,14547737.0,28,0.02683200401909576,0.0,0.0,0.0002916727431821,0.0002203007104697,0.0,8.104165541088119e-05,0.0,0.0052069773496484,0.0,0.0,0.0,0.0,0.0,4.5869455529562866e-05,0.0,0.0,0.0,0.0125614418350626,4.187780057791365e-05,0.0003180212014133,0.0,0.0,0.0,0.0063656550703182,0.0008928571428571,0.000806289054626,0.0,0.0
17171,Scott,17,39.644065464885976,-90.47468743461589,207861.0,28,5.507517761744782e-05,0.0,0.0,0.0,5.507517761744782e-05,0.0,0.0,0.0,0.0,0.0,0.0,0.0,0.0,0.0,0.0,0.0,0.0,0.0,0.0,0.0,0.0,0.0,0.0,0.0,0.0,0.0,0.0,0.0,0.0
17177,Stephenson,17,42.35179240717448,-89.66224890480062,2304235.0,28,0.0003921648776128968,0.0,0.0,0.0,0.0,0.0,2.7013885136960397e-05,0.0,0.0,0.0,0.00032981530343,0.0,0.0,0.0,0.0,0.0,0.0,0.0,0.0,0.0,3.53356890459364e-05,0.0,0.0,0.0,0.0,0.0,0.0,0.0,0.0
17179,Tazewell,17,40.50738701833186,-89.5135092967686,7712949.0,28,0.0005394100336409,0.0,0.0001978239366963,0.0,0.0,0.0,0.0,0.0,0.0,0.0,0.000164907651715,0.0,0.0,0.0,0.0,0.0,0.0,0.0,0.0,0.0,0.0001766784452296,0.0,0.0,0.0,0.0,0.0,0.0,0.0,0.0
17197,Will,17,41.444954755087494,-87.97846460655786,48778960.0,28,0.005472098830337099,0.0,0.0,0.0,0.0,0.0,0.0001080555405478,0.0,0.0,0.0,0.0004947229551451,0.0,0.0018026137899954,0.0,0.0,0.0,0.0,0.0,0.0,0.0005444114075128,0.0001413427561837,0.0,0.0,0.0,0.0,0.0023809523809523,0.0,0.0,0.0
17201,Winnebago,17,42.336182288050715,-89.16081663490509,17728085.0,28,0.0005575867828918273,0.0,0.0,0.0,0.0,0.0,0.0002971527365064,0.0,0.0,0.0,0.0,0.0,0.0,0.0,0.0,0.0,0.0,0.0,0.0,8.37556011558273e-05,0.0001766784452296,0.0,0.0,0.0,0.0,0.0,0.0,0.0,0.0
18003,Allen,18,41.09080717010213,-85.06657768046786,27897536.0,28,0.010103140931385365,0.0,0.0,0.0,0.0001101503552348,0.0,0.0001890971959586,0.0,0.0018224420723769,0.0,0.0,0.0,0.0,0.0,4.5869455529562866e-05,0.0,0.0,0.0,0.0038230475150191,0.0002512668034674,0.0020848056537102,0.0,0.0,0.0,0.0017764618800888,0.0,0.0,0.0,0.0
18005,Bartholomew,18,39.20591542292074,-85.89765013835509,8668346.0,28,0.0655574652282102,0.0,0.0035608308605341,0.0011666909727285,0.0007159773090268,0.0,0.0009995137500675,0.0,0.0,0.0,0.0028034300791556,0.0,0.0,0.0,0.015412137057933,0.0009704027171276,0.0,0.0007286859363614,0.00600764609503,0.0049834582687716,0.0054416961130741,0.0047923322683706,0.0,0.0012497768255668,0.0,0.0026785714285714,0.0046361620640999,0.0036815462494247,0.0057286072323666
18011,Boone,18,40.050797077447704,-86.46871032232106,5708094.0,28,0.0003745023819259,0.0,0.0001978239366963,0.0,0.0,0.0,0.0,0.0,0.0,0.0,0.0,0.0,0.0,0.0,0.0,0.0,0.0,0.0,0.0,0.0,0.0001766784452296,0.0,0.0,0.0,0.0,0.0,0.0,0.0,0.0
18017,Cass,18,40.761407064361414,-86.34584119487455,1877088.0,28,6.23495741828968e-05,0.0,0.0,0.0,0.0,0.0,2.7013885136960397e-05,0.0,0.0,0.0,0.0,0.0,0.0,0.0,0.0,0.0,0.0,0.0,0.0,0.0,3.53356890459364e-05,0.0,0.0,0.0,0.0,0.0,0.0,0.0,0.0
18019,Clark,18,38.477205089537435,-85.70722415014976,7731075.0,28,0.0003014694894599837,0.0,0.0,0.0,0.0,0.0,5.4027770273920795e-05,0.0,0.0,0.0,0.0,0.0,0.0,0.0,4.5869455529562866e-05,0.0,0.0,0.0,0.0,0.0,0.0,0.0,0.0,0.0,0.0,0.0,0.0002015722636565,0.0,0.0
18035,Delaware,18,40.22745461836671,-85.39689237385831,5333469.0,28,0.003382859259010763,0.0,0.0,0.0,0.0,0.0,0.0,0.0,0.0,0.0,0.0,0.0,0.0,0.0,4.5869455529562866e-05,0.0,0.0,0.0,0.0,0.0002931446040453,0.0002826855123674,0.0,0.0,0.0,0.0,0.0,0.0,0.0027611596870685,0.0
18039,Elkhart,18,41.59729912995948,-85.85874868381913,20857760.0,28,0.0028298794352372603,0.0,0.0,0.0,0.0,0.0,2.7013885136960397e-05,0.0,0.0,0.0,0.0,0.0,0.0,0.0,0.0001834778221182,0.0009704027171276,0.0,0.0,0.0,0.0003769002052011,0.0012720848056534,0.0,0.0,0.0,0.0,0.0,0.0,0.0,0.0
18055,Greene,18,39.03634938942893,-86.96204236764402,852324.0,28,0.002443329939209,0.0,0.0,0.0,0.0,0.0,0.0,0.0,0.0,0.0,0.0,0.0,0.0,0.0,0.0,0.0,0.0,0.0,0.0,0.0018426232254281,0.0006007067137809,0.0,0.0,0.0,0.0,0.0,0.0,0.0,0.0
18057,Hamilton,18,40.072424224435615,-86.0520247542576,28512867.0,28,0.0081945852256031,0.0,0.0001978239366963,0.0013125273443196,0.0012667290852011,0.0,0.0008644443243825,0.0,0.0,0.0,0.0013192612137203,0.0,0.0,0.0,0.0,0.0,0.0,0.0,0.0,0.0019263788265838,0.0013074204946995,0.0,0.0,0.0,0.0,0.0,0.0,0.0,0.0
18059,Hancock,18,39.82351997154038,-85.77326801754677,4757495.0,28,4.187780057791365e-05,0.0,0.0,0.0,0.0,0.0,0.0,0.0,0.0,0.0,0.0,0.0,0.0,0.0,0.0,0.0,0.0,0.0,0.0,4.187780057791365e-05,0.0,0.0,0.0,0.0,0.0,0.0,0.0,0.0,0.0
18061,Harrison,18,38.19490342025182,-86.11134100508522,1607023.0,28,2.7013885136960397e-05,0.0,0.0,0.0,0.0,0.0,2.7013885136960397e-05,0.0,0.0,0.0,0.0,0.0,0.0,0.0,0.0,0.0,0.0,0.0,0.0,0.0,0.0,0.0,0.0,0.0,0.0,0.0,0.0,0.0,0.0
18063,Hendricks,18,39.76944341950726,-86.50998416945151,10037410.0,28,0.0001257465557093206,0.0,0.0,0.0,5.507517761744782e-05,0.0,0.0,0.0,0.0,0.0,0.0,0.0,0.0,0.0,0.0,0.0,0.0,0.0,0.0,0.0,7.06713780918728e-05,0.0,0.0,0.0,0.0,0.0,0.0,0.0,0.0
18067,Howard,18,40.48363565698647,-86.11693039574436,5473566.0,28,0.00283296638095,0.0,0.0,0.0,0.0,0.0,0.0001620833108217,0.0,0.0005206977349648,0.0,0.0,0.0,0.0,0.0,0.0,0.0,0.0,0.0,0.0,0.0015494786213827,0.0006007067137808,0.0,0.0,0.0,0.0,0.0,0.0,0.0,0.0
18069,Huntington,18,40.82911378827688,-85.48816779842653,1990484.0,28,0.0,0.0,0.0,0.0,0.0,0.0,0.0,0.0,0.0,0.0,0.0,0.0,0.0,0.0,0.0,0.0,0.0,0.0,0.0,0.0,0.0,0.0,0.0,0.0,0.0,0.0,0.0,0.0,0.0
18081,Johnson,18,39.48989598049695,-86.10163397687549,8036774.0,28,7.06713780918728e-05,0.0,0.0,0.0,0.0,0.0,0.0,0.0,0.0,0.0,0.0,0.0,0.0,0.0,0.0,0.0,0.0,0.0,0.0,0.0,7.06713780918728e-05,0.0,0.0,0.0,0.0,0.0,0.0,0.0,0.0
18085,Kosciusko,18,41.24395419462293,-85.86073391033763,7800347.0,28,0.0005262071471872603,0.0,0.0,0.000145836371591,0.0,0.0,2.7013885136960397e-05,0.0,0.0,0.0,0.0,0.0,0.0,0.0,0.0,0.0,0.0,0.0,0.0,0.0,0.0003533568904593,0.0,0.0,0.0,0.0,0.0,0.0,0.0,0.0
18089,Lake,18,41.47180618425475,-87.37641492247067,30459082.0,28,0.0123078296800886,0.0,0.000593471810089,0.000145836371591,0.0004956765985568,0.0,0.0002431249662325,0.0,0.001301744337412,0.0,0.00032981530343,0.0,0.0,0.0,0.000412825099766,0.0,0.0,0.0,0.0043691971600218,0.0008375560115582,0.0018021201413425,0.0,0.0,0.0,0.0017764618800888,0.0,0.0,0.0,0.0
18095,Madison,18,40.16145095740065,-85.71934267018533,5212353.0,28,4.187780057791365e-05,0.0,0.0,0.0,0.0,0.0,0.0,0.0,0.0,0.0,0.0,0.0,0.0,0.0,0.0,0.0,0.0,0.0,0.0,4.187780057791365e-05,0.0,0.0,0.0,0.0,0.0,0.0,0.0,0.0,0.0
18097,Marion,18,39.78165431435931,-86.13847671373615,129886599.0,28,0.0571183204362498,0.0006864988558352,0.0035608308605339,0.0040834184045496,0.0012116539075836,0.0001145869141744,0.0028094440542432,0.0,0.0,0.0,0.0011543535620051,0.0088082901554403,0.0,0.0,0.0032567313425987,0.0009704027171276,0.0,0.0,0.0,0.0046065580635699,0.0061484098939922,0.0029286474973374,0.0042113323124042,0.0,0.0,0.0008928571428571,0.0024188671638782,0.0078232857800276,0.0014321518080916
18101,Martin,18,38.707858530524774,-86.80308354574152,1470555.0,28,7.06713780918728e-05,0.0,0.0,0.0,0.0,0.0,0.0,0.0,0.0,0.0,0.0,0.0,0.0,0.0,0.0,0.0,0.0,0.0,0.0,0.0,7.06713780918728e-05,0.0,0.0,0.0,0.0,0.0,0.0,0.0,0.0
18105,Monroe,18,39.16080650240052,-86.52310973237454,8893355.0,28,0.0035998383489468998,0.0,0.0,0.0,0.0,0.0,0.0002161110810956,0.0,0.0,0.0,0.0,0.0,0.0,0.0,0.0,0.0004852013585638,0.0,0.0,0.0,0.0001256334017337,0.0006360424028267,0.0,0.0,0.0,0.0002960769800148,0.0,0.0,0.0018407731247123,0.0
18111,Newton,18,40.95561650991714,-87.39753984737133,488033.0,28,0.0003270084322280364,0.0,0.0,0.0002916727431821,0.0,0.0,0.0,0.0,0.0,0.0,0.0,0.0,0.0,0.0,0.0,0.0,0.0,0.0,0.0,0.0,3.53356890459364e-05,0.0,0.0,0.0,0.0,0.0,0.0,0.0,0.0
18125,Pike,18,38.39871957588851,-87.23209304483807,701734.0,28,0.00014993334112571366,0.0,0.0,0.0,0.0,0.0,0.0001080555405478,0.0,0.0,0.0,0.0,0.0,0.0,0.0,0.0,0.0,0.0,0.0,0.0,4.187780057791365e-05,0.0,0.0,0.0,0.0,0.0,0.0,0.0,0.0,0.0
18127,Porter,18,41.508532193734645,-87.07330089204255,9897777.0,28,0.0010164720658209355,0.0,0.0,0.0,0.0,0.0,0.0004052082770544,0.0,0.0,0.0,0.0004947229551451,0.0,0.0,0.0,4.5869455529562866e-05,0.0,0.0,0.0,0.0,0.0,7.06713780918728e-05,0.0,0.0,0.0,0.0,0.0,0.0,0.0,0.0
18133,Putnam,18,39.666114660529544,-86.84499020931264,1418894.0,28,2.7013885136960397e-05,0.0,0.0,0.0,0.0,0.0,2.7013885136960397e-05,0.0,0.0,0.0,0.0,0.0,0.0,0.0,0.0,0.0,0.0,0.0,0.0,0.0,0.0,0.0,0.0,0.0,0.0,0.0,0.0,0.0,0.0
18135,Randolph,18,40.15758057700811,-85.01131121194277,1199034.0,28,0.000164907651715,0.0,0.0,0.0,0.0,0.0,0.0,0.0,0.0,0.0,0.000164907651715,0.0,0.0,0.0,0.0,0.0,0.0,0.0,0.0,0.0,0.0,0.0,0.0,0.0,0.0,0.0,0.0,0.0,0.0
18141,St. Joseph,18,41.61667151200204,-86.28987105098676,18508352.0,28,0.004742695778882127,0.0,0.0003956478733926,0.0002916727431821,0.0,0.0,0.0004862499324651,0.0,0.0,0.0,0.0,0.0,0.0,0.0,0.0,0.0,0.0,0.0,0.0,8.37556011558273e-05,0.0018727915194344,0.0,0.0,0.0,0.0,0.0,0.0016125781092521,0.0,0.0
18145,Shelby,18,39.523579994428495,-85.79169575803311,2722474.0,28,0.0005089862753755001,0.0,0.0,0.0,0.0001652255328523,0.0003437607425232,0.0,0.0,0.0,0.0,0.0,0.0,0.0,0.0,0.0,0.0,0.0,0.0,0.0,0.0,0.0,0.0,0.0,0.0,0.0,0.0,0.0,0.0,0.0
18147,Spencer,18,38.01393338980305,-87.00795771355237,1147163.0,28,0.0002203007104697,0.0,0.0,0.0,0.0002203007104697,0.0,0.0,0.0,0.0,0.0,0.0,0.0,0.0,0.0,0.0,0.0,0.0,0.0,0.0,0.0,0.0,0.0,0.0,0.0,0.0,0.0,0.0,0.0,0.0
18149,Starke,18,41.28089770678191,-86.64774706020864,701171.0,28,0.0003241666216435,0.0,0.0,0.0,0.0,0.0,0.0003241666216435,0.0,0.0,0.0,0.0,0.0,0.0,0.0,0.0,0.0,0.0,0.0,0.0,0.0,0.0,0.0,0.0,0.0,0.0,0.0,0.0,0.0,0.0
18157,Tippecanoe,18,40.38851901514218,-86.89409295183144,13047003.0,28,0.031551675031747606,0.0,0.0,0.0,0.0011015035523488,0.0008021083992208,0.0011075692906152,0.0,0.0,0.0,0.0,0.0,0.0,0.0,0.0010091280216502,0.0131004366812226,0.0,0.0,0.0,0.0011725784161814,0.0021908127208477,0.0013312034078806,0.0,0.0,0.001480384900074,0.0008928571428571,0.0,0.0073630924988492,0.0
18163,Vanderburgh,18,38.02475475970951,-87.58584942069825,14719029.0,28,0.00026631068558245004,0.0,0.0,0.0,0.0,0.0,0.0001890971959586,0.0,0.0,0.0,0.0,0.0,0.0,0.0,0.0,0.0,0.0,0.0,0.0,4.187780057791365e-05,3.53356890459364e-05,0.0,0.0,0.0,0.0,0.0,0.0,0.0,0.0
18165,Vermillion,18,39.8534927854095,-87.46394566870745,1201934.0,28,0.0007523492918539,0.0,0.0,0.0,0.0004406014209395,0.0,0.0001350694256848,0.0,0.0,0.0,0.0,0.0,0.0,0.0,0.0,0.0,0.0,0.0,0.0,0.0,0.0001766784452296,0.0,0.0,0.0,0.0,0.0,0.0,0.0,0.0
18167,Vigo,18,39.43051926084913,-87.39002157364233,6203656.0,28,0.005284249977223661,0.0,0.0,0.0,0.0,0.0,2.7013885136960397e-05,0.0,0.0005206977349648,0.0,0.0013192612137203,0.0,0.0,0.0,0.0001834778221182,0.0,0.0,0.0,0.0,0.0019263788265839,0.0013074204946995,0.0,0.0,0.0,0.0,0.0,0.0,0.0,0.0
18169,Wabash,18,40.845530134370875,-85.79398859004493,1684616.0,28,0.0070148562510961,0.0,0.0,0.0,0.0,0.0,0.0,0.0,0.0,0.0,0.0031332453825857,0.0,0.0,0.0,0.0,0.0038816108685104,0.0,0.0,0.0,0.0,0.0,0.0,0.0,0.0,0.0,0.0,0.0,0.0,0.0
18173,Warrick,18,38.092126947523035,-87.27214084332321,3213988.0,28,0.002884702569187263,0.0,0.0,0.0004375091147732,0.0,0.0,0.0001620833108217,0.0,0.0002603488674824,0.0,0.0019788918205804,0.0,0.0,0.0,4.5869455529562866e-05,0.0,0.0,0.0,0.0,0.0,0.0,0.0,0.0,0.0,0.0,0.0,0.0,0.0,0.0
18181,White,18,40.74969973856778,-86.86561842572029,1498809.0,28,0.0002916727431821,0.0,0.0,0.0002916727431821,0.0,0.0,0.0,0.0,0.0,0.0,0.0,0.0,0.0,0.0,0.0,0.0,0.0,0.0,0.0,0.0,0.0,0.0,0.0,0.0,0.0,0.0,0.0,0.0,0.0
19005,Allamakee,19,43.284100882738365,-91.37803202766585,706983.0,28,4.187780057791365e-05,0.0,0.0,0.0,0.0,0.0,0.0,0.0,0.0,0.0,0.0,0.0,0.0,0.0,0.0,0.0,0.0,0.0,0.0,4.187780057791365e-05,0.0,0.0,0.0,0.0,0.0,0.0,0.0,0.0,0.0
19013,Black Hawk,19,42.47000545158368,-92.30879613626455,10239674.0,28,0.00021855624580751365,0.0,0.0,0.0,0.0,0.0,0.0,0.0,0.0,0.0,0.0,0.0,0.0,0.0,0.0,0.0,0.0,0.0,0.0,4.187780057791365e-05,0.0001766784452296,0.0,0.0,0.0,0.0,0.0,0.0,0.0,0.0
19033,Cerro Gordo,19,43.0814613089856,-93.26082047780865,3514665.0,28,0.0010836355669092,0.0,0.0,0.0,0.0,0.0,0.0,0.0,0.0,0.0,0.000164907651715,0.0,0.0,0.0,0.0,0.0,0.0,0.0,0.0,0.0,0.0009187279151942,0.0,0.0,0.0,0.0,0.0,0.0,0.0,0.0
19041,Clay,19,43.08248504292342,-95.15092181219966,1430722.0,28,0.0003956478733926,0.0,0.0003956478733926,0.0,0.0,0.0,0.0,0.0,0.0,0.0,0.0,0.0,0.0,0.0,0.0,0.0,0.0,0.0,0.0,0.0,0.0,0.0,0.0,0.0,0.0,0.0,0.0,0.0,0.0
19045,Clinton,19,41.89810259455881,-90.53198694566261,2909338.0,28,0.022979374322901237,0.000228832951945,0.000593471810089,0.0,0.0016522553285234,0.0006875214850464,0.0011345831757523,0.0,0.0,0.0044014084507042,0.0021437994722955,0.0,0.0027039206849932,0.0,0.0002293472776478,0.0053372149442018,0.0,0.0007286859363614,0.000819224467504,0.0008375560115582,3.53356890459364e-05,0.0005324813631522,0.0007656967840735,0.0,0.0001480384900074,0.0,0.0,0.0,0.0
19049,Dallas,19,41.68475975972856,-94.03972810449284,10067389.0,28,2.7013885136960397e-05,0.0,0.0,0.0,0.0,0.0,2.7013885136960397e-05,0.0,0.0,0.0,0.0,0.0,0.0,0.0,0.0,0.0,0.0,0.0,0.0,0.0,0.0,0.0,0.0,0.0,0.0,0.0,0.0,0.0,0.0
19051,Davis,19,40.74764052442298,-92.40971887815306,382786.0,28,7.06713780918728e-05,0.0,0.0,0.0,0.0,0.0,0.0,0.0,0.0,0.0,0.0,0.0,0.0,0.0,0.0,0.0,0.0,0.0,0.0,0.0,7.06713780918728e-05,0.0,0.0,0.0,0.0,0.0,0.0,0.0,0.0
19057,Des Moines,19,40.923083844623456,-91.18153519467603,2718196.0,28,0.00036273158841129997,0.0,0.0001978239366963,0.0,0.0,0.0,0.0,0.0,0.0,0.0,0.000164907651715,0.0,0.0,0.0,0.0,0.0,0.0,0.0,0.0,0.0,0.0,0.0,0.0,0.0,0.0,0.0,0.0,0.0,0.0
19061,Dubuque,19,42.468740605935515,-90.88249178311526,9017369.0,28,0.0009379054112244812,0.0,0.0,0.0005833454863642,0.0,0.0,8.104165541088119e-05,0.0,0.0,0.0,0.0,0.0,0.0,0.0,0.0,0.0,0.0,0.0,0.0,0.0001675112023116,0.0001060070671378,0.0,0.0,0.0,0.0,0.0,0.0,0.0,0.0
19073,Greene,19,42.036151547074965,-94.39681733455357,680582.0,28,0.00017294405563453638,0.0,0.0,0.0,0.0,0.0,0.0,0.0,0.0,0.0,0.0,0.0,0.0,0.0,0.0001376083665886,0.0,0.0,0.0,0.0,0.0,3.53356890459364e-05,0.0,0.0,0.0,0.0,0.0,0.0,0.0,0.0
19081,Hancock,19,43.081789948746035,-93.73427602721671,1100458.0,28,0.0001834778221182,0.0,0.0,0.0,0.0,0.0,0.0,0.0,0.0,0.0,0.0,0.0,0.0,0.0,0.0001834778221182,0.0,0.0,0.0,0.0,0.0,0.0,0.0,0.0,0.0,0.0,0.0,0.0,0.0,0.0
19083,Hardin,19,42.38378366455936,-93.24037242399638,1230235.0,28,0.00036273158841129997,0.0,0.0001978239366963,0.0,0.0,0.0,0.0,0.0,0.0,0.0,0.000164907651715,0.0,0.0,0.0,0.0,0.0,0.0,0.0,0.0,0.0,0.0,0.0,0.0,0.0,0.0,0.0,0.0,0.0,0.0
19091,Humboldt,19,42.776444830231256,-94.20718568579444,596423.0,28,8.37556011558273e-05,0.0,0.0,0.0,0.0,0.0,0.0,0.0,0.0,0.0,0.0,0.0,0.0,0.0,0.0,0.0,0.0,0.0,0.0,8.37556011558273e-05,0.0,0.0,0.0,0.0,0.0,0.0,0.0,0.0,0.0
19093,Ida,19,42.386748857137,-95.51342904658182,847680.0,28,0.0001978239366963,0.0,0.0001978239366963,0.0,0.0,0.0,0.0,0.0,0.0,0.0,0.0,0.0,0.0,0.0,0.0,0.0,0.0,0.0,0.0,0.0,0.0,0.0,0.0,0.0,0.0,0.0,0.0,0.0,0.0
19099,Jasper,19,41.68598477380644,-93.05375595037805,1541901.0,28,0.0005181347150259,0.0,0.0,0.0,0.0,0.0,0.0,0.0,0.0,0.0,0.0,0.0005181347150259,0.0,0.0,0.0,0.0,0.0,0.0,0.0,0.0,0.0,0.0,0.0,0.0,0.0,0.0,0.0,0.0,0.0
19101,Jefferson,19,41.03174170195596,-91.94886966800392,925384.0,28,0.0003848999926138765,0.0,0.0,0.0,0.0,0.0,0.0002971527365064,0.0,0.0,0.0,0.0,0.0,0.0,0.0,4.5869455529562866e-05,0.0,0.0,0.0,0.0,4.187780057791365e-05,0.0,0.0,0.0,0.0,0.0,0.0,0.0,0.0,0.0
19103,Johnson,19,41.671399197044565,-91.58803049062527,11947432.0,28,0.0022083249005686,0.0004576659038901,0.0001978239366963,0.000145836371591,0.0,0.0,0.0002701388513696,0.0,0.0,0.0,0.0,0.0,0.0,0.0,0.0007797807440025,0.0,0.0,0.0,0.0,0.0,0.0,0.0,0.0,0.0003570790930191,0.0,0.0,0.0,0.0,0.0
19109,Kossuth,19,43.20370790884381,-94.20672259914429,1279274.0,28,2.7013885136960397e-05,0.0,0.0,0.0,0.0,0.0,2.7013885136960397e-05,0.0,0.0,0.0,0.0,0.0,0.0,0.0,0.0,0.0,0.0,0.0,0.0,0.0,0.0,0.0,0.0,0.0,0.0,0.0,0.0,0.0,0.0
19111,Lee,19,40.64187882582855,-91.47925606009082,2248893.0,28,0.0004862499324652,0.0,0.0,0.0,0.0,0.0,0.0004862499324652,0.0,0.0,0.0,0.0,0.0,0.0,0.0,0.0,0.0,0.0,0.0,0.0,0.0,0.0,0.0,0.0,0.0,0.0,0.0,0.0,0.0,0.0
19113,Linn,19,42.0787671248335,-91.59901903916946,20863578.0,28,0.002507433041877499,0.0,0.0007912957467853,0.0,0.0006609021314093,0.0,0.0004322221621913,0.0,0.0,0.0,0.000164907651715,0.0,0.0,0.0,4.5869455529562866e-05,0.0,0.0,0.0,0.0,0.0003769002052011,3.53356890459364e-05,0.0,0.0,0.0,0.0,0.0,0.0,0.0,0.0
19139,Muscatine,19,41.48394555904049,-91.11285387354941,3125865.0,28,0.0004303371779458629,0.0,0.0,0.0,0.0,0.0,0.0002431249662326,0.0,0.0,0.0,0.0,0.0,0.0,0.0,4.5869455529562866e-05,0.0,0.0,0.0,0.0,0.0,0.0001413427561837,0.0,0.0,0.0,0.0,0.0,0.0,0.0,0.0
19149,Plymouth,19,42.73785103866018,-96.21400591467362,2000796.0,28,8.37556011558273e-05,0.0,0.0,0.0,0.0,0.0,0.0,0.0,0.0,0.0,0.0,0.0,0.0,0.0,0.0,0.0,0.0,0.0,0.0,8.37556011558273e-05,0.0,0.0,0.0,0.0,0.0,0.0,0.0,0.0,0.0
19153,Polk,19,41.685296935167976,-93.57339539696436,59256524.0,28,0.0296109534950632,0.0,0.0023738872403557,0.0005833454863641,0.0014319546180534,0.0,0.0012426387162998,0.0,0.0,0.0,0.0004947229551451,0.0031088082901554,0.0036052275799909,0.0111731843575419,0.0001834778221182,0.0004852013585638,0.0,0.0,0.0024576734025121,0.0013400896184929,0.0011307420494699,0.0,0.0,0.0,0.0,0.0,0.0,0.0,0.0
19155,Pottawattamie,19,41.336650614557854,-95.54234903569069,5782771.0,28,0.0003956478733926,0.0,0.0003956478733926,0.0,0.0,0.0,0.0,0.0,0.0,0.0,0.0,0.0,0.0,0.0,0.0,0.0,0.0,0.0,0.0,0.0,0.0,0.0,0.0,0.0,0.0,0.0,0.0,0.0,0.0
19163,Scott,19,41.63708813673281,-90.62325167898089,12795009.0,28,0.0008812100137679136,0.0,0.0,0.0007291818579552,0.0001101503552348,0.0,0.0,0.0,0.0,0.0,0.0,0.0,0.0,0.0,0.0,0.0,0.0,0.0,0.0,4.187780057791365e-05,0.0,0.0,0.0,0.0,0.0,0.0,0.0,0.0,0.0
19169,Story,19,42.03615011845638,-93.46504327285405,7288490.0,28,0.055158352864511505,0.0013729977116704,0.0154302670623141,0.0,0.0011565787299662,0.0019479775409648,0.0006753471284239,0.0,0.0,0.0026408450704225,0.0054419525065962,0.0031088082901554,0.0036052275799909,0.0074487895716946,0.0002293472776477,0.0,0.00557880055788,0.0,0.0,0.0009213116127139,0.0001060070671378,0.0018636847710328,0.0,0.0030351722906623,0.0,0.000595238095238,0.0,0.0,0.0
19183,Washington,19,41.3355111970056,-91.71785787298856,1654780.0,28,0.0,0.0,0.0,0.0,0.0,0.0,0.0,0.0,0.0,0.0,0.0,0.0,0.0,0.0,0.0,0.0,0.0,0.0,0.0,0.0,0.0,0.0,0.0,0.0,0.0,0.0,0.0,0.0,0.0
19189,Winnebago,19,43.37755695459211,-93.73419726428872,619879.0,28,0.00028922762389941366,0.0,0.0,0.0,0.0,0.0,0.0,0.0,0.0,0.0,0.0,0.0,0.0,0.0,0.0,0.0,0.0,0.0,0.0,4.187780057791365e-05,0.0002473498233215,0.0,0.0,0.0,0.0,0.0,0.0,0.0,0.0
